brewery,satellite_location,flagship,brewery_type,address,city,zipcode,county,latitude,longitude,year_established,guild_member,production_data_2017,production_data_2022,closed_since_2022,untappd_profile_link,rating,total_visits,unique_visits,monthly_visits
192 Brewing Company,Mount Vernon,0,taproom,1405 South 2nd Street,Mount Vernon,98273,Skagit,48.41177416,-122.3379704,2010,1,1,1,1,https://untappd.com/192BrewingCo,3.38,6395.0,3187.0,3.0
192 Brewing Company,,1,brewpub,7324 NE 175th Street Ste F,Kenmore,98028,King,47.7566771,-122.2425016,2010,1,1,1,0,https://untappd.com/192BrewingCo,3.38,6395.0,3187.0,3.0
20 Corners Brewing Company,,1,brewpub,14148 NE 190th St - Suite A,Woodinville,98072,King,47.76506654,-122.1510149,2016,0,1,1,0,https://untappd.com/20CornersBrewingCompany,3.73,27614.0,8960.0,46.0
210 Brewing Company,,1,taproom,3438 Stoluckquamish Lane,Arlington,98223,Snohomish,48.2135319,-122.1848541,2015,1,1,0,0,https://untappd.com/210Brewing,3.53,2357.0,1030.0,20.0
23rd Ave Brewery,,1,micro,2313 S Jackson St,Seattle,98144,King,47.59927,-122.3018,2018,0,0,1,0,https://untappd.com/23rdAveBrewery,3.66,105.0,71.0,5.0
4 Stitch Brewing Company,,1,brewpub,16709 9th Ave SE,Mill Creek,98012,Snohomish,47.84617437,-122.2201877,2017,1,0,1,0,https://untappd.com/4StitchBrewingCompany,3.85,764.0,226.0,15.0
5 North Brewing Company,,1,taproom,6501 N Cedar Rd,Spokane,99208,Spokane,47.71758683,-117.4328496,2020,0,0,1,1,https://untappd.com/w/5-north-brewing-company/459754,3.63,770.0,256.0,0.0
5 Rights Brewing Company,,1,brewpub,1514 3rd Street,Marysville,98270,Snohomish,48.05083967,-122.1766716,2015,0,1,1,0,https://untappd.com/5RightsBrewing,3.98,13101.0,2283.0,58.0
54°40' Brewing Company,,1,brewpub,3801 S Truman Rd #1,Washougal,98671,Clark,45.56483205,-122.3270743,2015,0,1,1,0,https://untappd.com/5440BrewingCompany,3.69,36450.0,14677.0,61.0
5th Line Brewing Company,,1,micro,1015 E Lincoln Ave Ste 106,Yakima,98901,Yakima,46.60902802,-120.4939929,2021,1,0,1,0,https://untappd.com/5thlinebrewingco,3.65,1586.0,526.0,25.0
7 Seas Brewing Company,Tacoma,1,taproom,2101 Jefferson Ave,Tacoma,98402,Pierce,47.242638,-122.439135,2009,1,1,1,0,https://untappd.com/7seasbrewing,3.71,114777.0,32741.0,181.0
7 Seas Brewing Company,Gig Harbour,0,brewpub,2905 Harborview Dr,Gig Harbor,98335,Pierce,47.32760196,-122.5774155,2009,1,1,1,0,https://untappd.com/7seasbrewing,3.71,114777.0,32741.0,181.0
Acorn Brewing,,1,taproom,2105 E Meridian,Edgewood,98371,Pierce,47.237965,-122.293459,2021,1,0,1,0,https://untappd.com/Acorn_Brewing,3.74,6085.0,1576.0,15.0
Airways Brewing Company,Pacific Business park,1,brewpub,8611 S 212th St,Kent,98031,King,47.411994,-122.2249666,2010,1,1,1,0,https://untappd.com/airwaysbrewing,3.8,53820.0,18031.0,48.0
Airways Brewing Company,Downtown Kent,0,taproom,320 W Harrison St,Kent,98032,King,47.38212953,-122.2358788,2010,1,1,1,0,https://untappd.com/airwaysbrewing,3.8,53820.0,18031.0,48.0
Ale Spike Camano Island Brewing,,1,brewpub,1244 Moore Rd I-1,Camano,98282,Island,48.2572192,-122.4381311,2018,1,1,1,0,https://untappd.com/AleSpikeCamanoIslandBrewery,3.9,3531.0,505.0,0.0
Anacortes Brewery,,1,micro,320 Commercial Ave,Anacortes,98221,Skagit,48.5192406,-122.6127606,2002,1,1,1,0,https://untappd.com/AnacortesBreweryRockfishGrill,3.58,23166.0,9725.0,47.0
Ancient Lakes Brewing Company,,1,brewpub,1004 F Street SW #12,Quincy,98848,Grant,47.6105405,-122.308173,2010,0,0,1,0,https://untappd.com/ancientlakesbrewing,3.5,355.0,149.0,0.0
Ashtown Brewing Company,,1,taproom,1175 Hudson St,Longview,98632,Cowlitz,46.13661487,-122.9327409,2013,0,1,1,0,https://untappd.com/AshtownBrewingCompany,3.67,9202.0,3353.0,25.0
Aslan Brewing Company,Seattle,0,micro,401 N 36th St Ste 102,Seattle,98103,King,47.651808,-122.354245,2014,1,1,1,0,https://untappd.com/AslanBrewingCompany,3.77,123653.0,41087.0,293.0
Aslan Brewing Company,Bellingham Forest St,1,taproom,1330 N Forest St,Bellingham,98225,Whatcom,48.74801531,-122.4754506,2014,1,1,1,0,https://untappd.com/AslanBrewingCompany,3.77,123653.0,41087.0,293.0
Aslan Brewing Company,Bellingham State St,0,taproom,1322 N State Street,Bellingham,98225,Whatcom,48.74862467,-122.476594,2014,1,1,1,0,https://untappd.com/AslanBrewingCompany,3.77,123653.0,41087.0,293.0
At Large Brewing,,1,brewpub,2730 W Marine View Drive,Everett,98201,Snohomish,47.98158257,-122.2144055,2015,0,1,1,0,https://untappd.com/AtLargeBrewingCompany,3.81,19600.0,4572.0,41.0
Atomic Ale Brewpub and Eatery,,1,micro,1015 Lee Blvd,Richland,99352,Benton,46.27475215,-119.2782028,2005,0,1,1,0,https://untappd.com/w/atomic-ale-brewpub-eatery/15573,3.52,5736.0,1933.0,11.0
Atwood Farm Brewery,,1,micro,4012 Sweet Rd,Blaine,98230,Whatcom,48.979201,-122.698149,2016,0,0,1,0,https://untappd.com/AtwoodFarmBrewery,3.75,3763.0,1969.0,3.0
Audacity Brewing,,1,micro,1208 10th St Suite C,Snohomish,98290,Snohomish,47.924245,-122.096751,2021,1,0,0,0,https://untappd.com/AudacityBrewing,4.08,3854.0,663.0,22.0
Backwoods Brewing Company,,1,taproom,1162 Wind River Rd,Carson,98610,Skamania,45.72871954,-121.8203734,2012,0,1,1,0,https://untappd.com/BackwoodsBrewingCompany,3.72,147978.0,49689.0,431.0
Bad Jimmy's Brewing Company,,1,alt prop,4358 Leary Way Nw,Seattle,98107,King,47.6596601,-122.365556,2014,0,1,1,0,https://untappd.com/BadJimmysBrewingCo,3.58,27018.0,9433.0,3.0
Badass Backyard Brewing,,1,brewpub,1415 N Argonne Rd,Spokane Valley,99212,Spokane,47.66990294,-117.282921,2015,1,1,1,0,https://untappd.com/Badass-Backyard-Brewing,3.6,3786.0,1046.0,4.0
Badger Mountain Brewing Company,,1,taproom,1 Orondo Avenue,Wenatchee,98801,Chelan,47.423866,-120.309043,2013,0,0,0,0,https://untappd.com/BadgerMountainBrewing,3.6,6580.0,2812.0,2.0
Bainbridge Brewing Company,Coppertop Park,1,taproom,9415 Coppertop Loop Suite 103-104,Bainbridge Island,98110,Kitsap,47.65010066,-122.5194436,2012,1,1,1,0,https://untappd.com/BainbridgeIslandBrewing,3.67,42244.0,16823.0,89.0
Bainbridge Brewing Company,Downtown Winslow,0,regional,500 Winslow Way East,Bainbridge Island,98110,Kitsap,47.6250242,-122.514901,2012,1,1,1,0,https://untappd.com/BainbridgeIslandBrewing,3.67,42244.0,16823.0,89.0
Bale Breaker Brewing Company,Yakima,1,taproom,1801 Birchfield Rd,Yakima,98901,Yakima,46.577022,-120.435339,2013,1,1,1,0,https://untappd.com/BaleBreakerBrewing,3.88,262528.0,70287.0,845.0
Bale Breaker Brewing Company,Seattle,0,taproom,826 NW 49th St,Seattle,98107,King,47.66452825,-122.3680346,2013,1,1,1,0,https://untappd.com/BaleBreakerBrewing,3.88,262528.0,70287.0,845.0
Bardic Brewing and Cider,,1,brewpub,15412 E Sprague Ave Suite 14,Spokane Valley,99037,Spokane,47.65694705,-117.197867,2019,0,0,1,0,https://untappd.com/Bardic_Brewing,3.94,1312.0,316.0,12.0
Barhop Brewing,Port Angeles Railroad Ave,1,brewpub,124 W Railroad Ave,Port Angeles,98362,Clallam,48.12089402,-123.4325304,2011,0,1,1,0,https://untappd.com/BarhopBrewing,3.64,10564.0,4091.0,30.0
Barhop Brewing,Port Angeles 19th St,0,micro,2506 W 19th St,Port Angeles,98363,Clallam,48.1217165,-123.4948628,2011,0,1,1,0,https://untappd.com/BarhopBrewing,3.64,10564.0,4091.0,30.0
Barley POP! Brewing,,1,micro,4715 86th pl ne,Marysville,98270,Snohomish,48.05181215,-122.1772295,1999,1,0,1,0,https://untappd.com/BarleyPOPBrewing,3.77,295.0,151.0,0.0
Barrel Mountain Brewing,,1,brewpub,607 E Main St,Battle Ground,98604,Clark,45.78085889,-122.5309307,2016,0,1,1,0,https://untappd.com/BarrelMountainBrewing,3.76,20278.0,9367.0,107.0
Bastion Brewing Company,,1,taproom,12529 Christianson Rd,Anacortes,98221,Skagit,48.4617823,-122.5706139,2016,0,1,1,0,https://untappd.com/BastionBrewingCompany,3.72,10230.0,3073.0,42.0
Beach Cat Brewing,,1,brewpub,7876 Birch Bay Dr #101,Blaine,98230,Whatcom,48.92825894,-122.7382271,2021,1,0,1,0,https://untappd.com/w/beach-cat-brewing/461545,3.75,2695.0,954.0,55.0
Beardslee Public House,,1,brewpub,19116 112th Ave Ne,Bothell,98011,Snohomish,47.7662638,-122.191975,2015,1,1,1,0,https://untappd.com/w/beardslee-public-house/159258,3.64,18445.0,5449.0,28.0
Bellevue Brewing Company,,1,taproom,1820 130th Avenue NE Suite 2,Bellevue,98005,King,47.62658291,-122.1669286,2011,1,1,1,0,https://untappd.com/bellevuebrewingcompany,3.65,56199.0,20109.0,86.0
Bellwether Brewing Company,,1,brewpub,2019 N Monroe Street,Spokane,99205,Spokane,47.67599738,-117.4267963,2016,0,1,1,0,https://untappd.com/BellwetherBrewingCompany,3.74,9852.0,2062.0,31.0
Bennidito's Brewpub,,1,taproom,1909 E Sprague,Spokane,99202,Spokane,47.657375,-117.382272,2016,0,1,1,0,https://untappd.com/w/bennidito-s-brew-pub/212553,3.65,3330.0,1162.0,5.0
Bent Bine Brewing Company,,1,taproom,23297 State Route 3,Belfair,98528,Mason,47.444987,-122.832246,2017,0,1,1,0,https://untappd.com/BentBineBrewCo,3.66,3925.0,1410.0,13.0
Bickersons Brewhouse,,1,taproom,4710 NE 4th St #C105,Renton,98059,King,47.488866,-122.155393,2021,1,0,1,0,https://untappd.com/BickersonsBrewhouse,3.8,8272.0,2349.0,53.0
Big Barn Brewing Company,,1,taproom,16004 N Applewood Lane,Mead,99021,Spokane,47.80600384,-117.2566322,2013,1,1,1,0,https://untappd.com/BigBarnBrewingCompany,3.62,10545.0,3289.0,17.0
Big Block Brewing,Sammamish,1,taproom,3310 E Lake Sammamish Pkwy SE,Sammamish,98074,King,47.5796686,-122.0741734,2014,0,1,1,0,https://untappd.com/bigblockbrews,3.81,16653.0,3113.0,43.0
Big Block Brewing,Redmond,0,brewpub,14950 NE 95th St,Redmond,98052,King,47.6864002,-122.1411306,2014,0,1,1,0,https://untappd.com/bigblockbrews,3.81,16653.0,3113.0,43.0
Big House Brewpub,,1,brewpub,11 S Palouse St,Walla Walla,99362,Walla Walla,46.0690413,-118.3347678,2019,1,0,0,0,https://untappd.com/BigHouseBrewPub,3.59,1105.0,579.0,11.0
Big Time Brewery,,1,brewpub,4133 University Ave NE,Seattle,98105,King,47.65795447,-122.3136539,1988,0,1,1,0,https://untappd.com/BigTimeBrewingCompany,3.66,28826.0,9590.0,45.0
Birdsview Brewing Company,,1,micro,38302 State Rt 20,Concrete,98237,Skagit,48.52822071,-121.9130771,2006,0,1,1,0,https://untappd.com/BirdsviewBrewingCompany,3.59,5458.0,2087.0,5.0
Bizarre Brewing,,1,brewpub,4441 26th Ave W Suite A,Seattle,98199,King,47.66058456,-122.3902884,2022,1,0,1,0,https://untappd.com/BizarreBrewing,3.92,6935.0,2333.0,342.0
Black Fleet Brewing,,1,taproom,2302 Fawcett Ave,Tacoma,98402,Pierce,47.240775,-122.440565,2019,1,0,0,0,https://untappd.com/BlackFleetBrewing,3.72,7362.0,2152.0,12.0
Black Label Brewing Company,,1,micro,W 19 Main Ave,Spokane,99201,Spokane,47.6587606,-117.41198,2015,0,1,1,0,https://untappd.com/BlackLabelBrewingCompany,3.71,10616.0,2867.0,4.0
Black Raven Brewing Company,Woodinville,1,micro,15902 Woodinville-Redmond Rd NE,Woodinville,98072,King,47.74648386,-122.1631586,2009,1,1,1,0,https://untappd.com/BlackRavenBrewingCompany,3.8,255112.0,70172.0,760.0
Black Raven Brewing Company,Redmond,0,brewpub,14679 NE 95th St,Redmond,98052,King,47.68549171,-122.1455104,2009,1,1,1,0,https://untappd.com/BlackRavenBrewingCompany,3.8,255112.0,70172.0,760.0
Blackbeard's Brewing Company,,1,brewpub,700 W Ocean Ave,Westport,98595,Grays Harbor,46.88708755,-124.1119257,2015,0,1,1,0,https://untappd.com/Blackbeards,3.56,5040.0,1841.0,18.0
Blewett Brewing Company,,1,micro,911 Commercial Street,Leavenworth,98826,Chelan,47.5966521,-120.6561619,2016,1,1,1,0,https://untappd.com/BlewettBrewing,3.76,15996.0,5265.0,30.0
Bluebird Microcreamery and Brewery,,1,nanobrewery,7415 Greenwood Ave N,Seattle,98103,King,47.6830284,-122.355485,2012,0,0,0,0,https://untappd.com/w/bluebird-microcreamery-brewery/41428,3.63,1345.0,925.0,0.0
Bombing Range Brewing Company,,1,micro,2000 Logston Blvd #126,Richland,99354,Benton,46.318477,-119.301893,2017,0,1,1,0,https://untappd.com/w/bombing-range-brewing-company/298095,3.79,5773.0,1492.0,38.0
Bosk Brew Works,,1,alt prop,14350 NE 193Rd Pl Building C,Woodinville,98072,King,47.76769213,-122.1484418,2018,1,0,0,0,https://untappd.com/BoskBrewWorks,3.71,10508.0,4283.0,13.0
Bottle Bay Brewing Company,,1,brewpub,503 E 30th Ave,Spokane,99203,Spokane,47.62733743,-117.4029121,2020,0,0,1,0,https://untappd.com/BottleBayBrewingCo,3.74,1240.0,378.0,4.0
Boundary Bay Brewery,,1,brewpub,1107 Railroad Ave,Bellingham,98225,Whatcom,48.74721696,-122.4810156,1995,1,1,1,0,https://untappd.com/bbaybrewery,3.7,96943.0,34203.0,180.0
BreakThru Brewing Company,,1,taproom,8611 S 212th St,Kent,98031,King,47.411994,-122.2249666,2021,1,0,1,0,https://untappd.com/BreakThruBrewingCompany,4.13,3796.0,1622.0,36.0
Brewbakers Brewing Company,,1,micro,11927 84th St Ne,Lake Stevens,98258,Snohomish,48.07243446,-122.0676933,2015,0,1,1,0,https://untappd.com/w/brewbakers-brewery-wa/219768,3.45,306.0,165.0,0.0
Brick West Brewing Company,,1,brewpub,1318 West 1St Ave Ste 1,Spokane,99201,Spokane,47.6565999,-117.4314751,2020,1,0,1,0,https://untappd.com/BrickWestBrewing,3.77,11323.0,4045.0,99.0
Bron Yr Aur Brewing Company,,1,micro,12160 Us Hwy 12,Naches,98937,Yakima,46.7386529,-120.73932,2015,0,1,1,0,https://untappd.com/BronYrAurBrew,3.69,5059.0,1778.0,7.0
Brother Ass Brewing,,1,taproom,11700 NE 54Th Ct,Vancouver,98686,Clark,45.70626635,-122.6172247,2015,0,1,0,0,https://untappd.com/BrotherAssBrewing,3.62,3441.0,1617.0,6.0
Brothers Cascadia Brewing,,1,taproom,9811 NE 15th Ave,Vancouver,98665,Clark,45.69223,-122.655954,2017,0,1,0,0,https://untappd.com/BrothersCascadia,3.88,39548.0,8834.0,251.0
Bugu Brewing Company,,1,taproom,14751 N Kelsey St Suite 107,Monroe,98272,Snohomish,47.8640911,-121.975192,2021,1,0,1,0,https://untappd.com/BuguBrewing,3.77,1029.0,300.0,12.0
Burke-Gilman Brewing Company,,1,taproom,3626 NE 45th St #102,Seattle,98105,King,47.6614658,-122.288056,2018,1,0,1,0,https://untappd.com/BurkeGilmanBrewingCompany,3.99,18601.0,3602.0,136.0
Burwood Brewing Company,,1,micro,1120 E St,Walla Walla,99362,Walla Walla,46.0933964,-118.2659,2014,1,1,1,0,https://untappd.com/BurwoodBrewingCompany,3.6,6780.0,2622.0,21.0
Byron Street Brewery,,1,taproom,3388 NW Byron Street Suite 101,Silverdale,98383,Kitsap,47.6447357,-122.6956894,2022,0,0,1,0,https://untappd.com/w/byron-street/529245,3.56,139.0,60.0,0.0
Cairn Brewing,,1,micro,7204 NE 175th St,Kenmore,98028,King,47.756734,-122.244177,2016,0,1,0,0,https://untappd.com/CairnBeer,3.83,21213.0,3497.0,107.0
Camas Brewing Company,,1,taproom,335 NE Cedar St,Camas,98607,Clark,45.58542289,-122.4038144,2021,0,0,1,1,https://untappd.com/CamasBrewingCo,3.57,377.0,219.0,0.0
Camp Colvos Brewing,Vashon,1,brewpub,17636 Vashon Hwy Sw,Vashon,98070,King,47.4464422,-122.4601578,2018,0,0,0,0,https://untappd.com/CampColvosBrewing,3.78,5539.0,2269.0,33.0
Camp Colvos Brewing,Tacoma,0,taproom,2104 Commerce St,Tacoma,98402,Pierce,47.24283525,-122.4371278,2018,0,0,0,0,https://untappd.com/CampColvosBrewing,3.78,5539.0,2269.0,33.0
Cardinal Craft Brewing,,1,brewpub,15579 Peterson Rd,Burlington,98233,Skagit,48.47251215,-122.4098098,2016,0,0,0,0,https://untappd.com/CardinalCraftBrewing,3.56,673.0,369.0,4.0
Chainline Brewing Company,,1,brewpub,500 Uptown Court Suite 210,Kirkland,98033,King,47.678357,-122.198164,2015,1,1,1,0,https://untappd.com/ChainlineBrewingCompany,3.78,34339.0,12273.0,95.0
Chaos Bay Brewing Company,,1,brewpub,1100 Perry Ave,Bremerton,98310,Kitsap,47.5703729,-122.6136835,2021,0,0,1,0,https://untappd.com/DerBlokkenBrewery,3.46,7701.0,2679.0,7.0
Chief Spring's Fire and Irons Brewpub,,1,micro,148 E Main St,Dayton,99328,Columbia,46.31924865,-117.9813348,2013,1,1,1,0,https://untappd.com/ChiefSpringsFireIronsBrewpub,3.53,1322.0,398.0,3.0
Chuckanut Brewery,,1,taproom,11937 Higgins Airport Way,Burlington,98233,Skagit,48.47346346,-122.4119584,2008,1,1,1,0,https://untappd.com/ChuckanutBrewery,3.73,65152.0,24135.0,248.0
Cloudburst Brewing,Western Ave,1,taproom,2116 Western Ave,Seattle,98121,King,47.61141494,-122.3449973,2015,1,1,1,0,https://untappd.com/CloudburstBrewing,4.0,193420.0,41485.0,584.0
Cloudburst Brewing,Shilshole Ave,0,taproom,5456 Shilshole Ave Nw,Seattle,98107,King,47.66770921,-122.3863387,2015,1,1,1,0,https://untappd.com/CloudburstBrewing,4.0,193420.0,41485.0,584.0
Cole Street Brewery,,1,brewpub,2551 Cole Street-Suite R,Enumclaw,98022,King,47.2038796,-121.98903,2014,0,1,1,0,https://untappd.com/ColeStreetBreweryEnumclaw,3.6,4847.0,1382.0,0.0
Columbia Valley Brewing Company,,1,brewpub,538 Riverside Dr,Wenatchee,98801,Chelan,47.432981,-120.313688,2011,0,0,1,0,https://untappd.com/ColumbiaValleyBrewery,3.47,1791.0,896.0,0.0
Cowiche Creek Brewing Company,,1,micro,514 Thompson Rd,Cowiche,98923,Yakima,46.65831896,-120.6834142,2018,1,1,0,0,https://untappd.com/CowicheCreek,3.74,3785.0,1764.0,10.0
Craft Brewing Academy/Skagit Valley College,,1,taproom,2405 East College Way,Mount Vernon,98273,Skagit,48.4377631,-122.350448,1996,0,1,1,0,https://untappd.com/CardinalCraftBrewing,3.56,673.0,369.0,4.0
Crane's Castle Brewing Company,,1,taproom,1550 NE Riddell Rd Suite #180,Bremerton,98310,Kitsap,47.60686,-122.6281819,2018,0,0,1,0,https://untappd.com/CranesCastleBrewing,3.7,3847.0,732.0,20.0
Crooked Label Brewing Company,,1,brewpub,773 Village Way,Monroe,98272,Snohomish,47.850331,-121.98083,2021,0,0,1,0,https://untappd.com/w/crooked-label-brewing-company/487482,3.8,500.0,193.0,4.0
Crossbuck Brewing,,1,micro,410 N 2nd Ave,Walla Walla,99362,Walla Walla,46.07018805,-118.342071,2018,1,0,1,0,https://untappd.com/xbuckbrewing,3.74,4989.0,2055.0,45.0
Crossed Arrows Brewery,,1,taproom,14004 Purdy Dr Gig harbor,Gig Harbor,98332,Pierce,47.3853763,-122.6292102,2019,0,0,1,0,https://untappd.com/Crossed_Arrows_Brewery,3.48,64.0,56.0,0.0
Crucible Brewing Company,Woodinville Forge,0,taproom,12826 NE 178th St Ste C,Woodinville,98072,King,47.75649976,-122.1685679,2015,0,1,1,1,https://untappd.com/CrucibleBrewing,3.82,52368.0,11793.0,92.0
Crucible Brewing Company,Everett,1,micro,909 SE Everett Mall Way Ste D440,Everett,98208,Snohomish,47.91063493,-122.2196672,2015,0,1,1,0,https://untappd.com/CrucibleBrewing,3.82,52368.0,11793.0,92.0
Cursed Brewing,,1,taproom,3108 S Lloyd Ln,Spokane,99223,Spokane,47.6259653,-117.3437658,2022,1,0,1,1,https://untappd.com/CursedBrewing,4.25,798.0,164.0,13.0
Deep Draft Brewing,,1,brewpub,3536 W Belfair Valley Rd,Bremerton,98312,Kitsap,47.5291651,-122.699005,2016,0,0,1,0,https://untappd.com/Deep_Draft_Brewing_Co,3.76,3649.0,1410.0,12.0
Diamond Knot Brewing Company,Front St Mukilteo,1,brewpub,621 Front St,Mukilteo,98275,Snohomish,47.94855427,-122.3049752,1993,1,1,1,0,https://untappd.com/diamondknot,3.6,102714.0,36405.0,134.0
Diamond Knot Brewing Company,Chennault Beach road,0,brewpub,4602 Chennault Beach Rd,Mukilteo,98275,Snohomish,47.8961112,-122.2955186,1993,1,1,1,0,https://untappd.com/diamondknot,3.6,102714.0,36405.0,134.0
Diamond Knot Brewing Company,mountlake terrace,0,taproom,5602 232nd St Sw,Mountlake Terrace,98043,Snohomish,47.7879417,-122.3092553,1993,1,1,1,0,https://untappd.com/diamondknot,3.6,102714.0,36405.0,134.0
Dick's Brewing Company,,1,taproom,3516 Galvin Road,Centralia,98531,Lewis,46.73549248,-122.9999643,1994,0,1,1,0,https://untappd.com/DicksBrewingCompany,3.42,47587.0,19952.0,69.0
Dirty Couch Brewing,,1,taproom,2715 W Fort St,Seattle,98199,King,47.66117377,-122.3919126,2017,0,0,1,0,https://untappd.com/DirtyCouchBrewing,3.95,15463.0,4517.0,54.0
Discovery Bay Brewing,,1,brewpub,948 North Park Ave,Port Townsend,98368,Jefferson,48.1066899,-122.8026616,2018,0,0,1,0,https://untappd.com/DiscoveryBayBrewing,3.56,2136.0,790.0,16.0
District Brewing,,1,taproom,520 Main St,Mt Vernon,98273,Skagit,48.41945088,-122.3387976,2021,1,0,1,0,https://untappd.com/w/district-brewing/461833,3.79,4110.0,1718.0,53.0
Dog and Pony Brewing Company,,1,taproom,5427 Binder Rd,Cashmere,98815,Chelan,47.5084445,-120.4777708,2016,0,0,0,0,https://untappd.com/DogPonyBrewingCompany,3.94,119.0,70.0,0.0
Dog Days Brewing,,1,taproom,260 4th St,Bremerton,98337,Kitsap,47.5658854,-122.6247931,2017,0,1,1,0,https://untappd.com/DogDaysBrewery,3.57,6951.0,1845.0,13.0
Doghaus Brewery,,1,brewpub,321 9th St,Leavenworth,98826,Chelan,47.5948746,-120.660143,2015,1,1,1,0,https://untappd.com/DoghausBrewery,3.7,10188.0,3886.0,19.0
Doomsday Brewing Company,Washougal,1,brewpub,421 C St Unit 1B,Washougal,98671,Clark,45.58082254,-122.3732983,2012,0,1,1,0,https://untappd.com/DoomsdayBrewingCompany,3.55,15060.0,5519.0,16.0
Doomsday Brewing Company,Hazel Dell town center,0,micro,9301 NE 5th Ave Suite 120,Vancouver,98665,Clark,45.6879658,-122.6666069,2012,0,1,1,0,https://untappd.com/DoomsdayBrewingCompany,3.55,15060.0,5519.0,16.0
Doomsday Brewing Company,Arnada Safehouse,0,micro,1919 Main Street,Vancouver,98660,Clark,45.6363044,-122.6713005,2012,0,1,1,0,https://untappd.com/DoomsdayBrewingCompany,3.55,15060.0,5519.0,16.0
Double Bluff Brewing Company,,1,micro,112 Anthes Ave,Langley,98260,Island,48.04026045,-122.4095264,2015,1,0,0,0,https://untappd.com/DBLFBrewing,3.71,4127.0,1589.0,19.0
Downpour Brewing,,1,brewpub,10991 NE State Highway 104,Kingston,98346,Kitsap,47.80129209,-122.5002286,2014,0,1,1,0,https://untappd.com/Downpour_Brewing,3.69,6538.0,1904.0,10.0
Dreadnought Brewing,,1,micro,16726 146th St SE Suite 153,Monroe,98272,Snohomish,47.864151,-122.006187,2015,0,1,1,0,https://untappd.com/DreadnoughtBrewing-brewer,3.81,8956.0,2692.0,23.0
Dru Bru,Snoqualmie Pass,1,micro,10 Pass Life Way,Snoqualmie Pass,98068,King,47.4211528,-121.4124,2014,1,1,1,0,https://untappd.com/DruBru,3.7,53345.0,18592.0,226.0
Dru Bru,Cle Elum,0,micro,1015 E 2nd St,Cle Elum,98922,Kittitas,47.19305065,-120.9171788,2014,1,1,1,0,https://untappd.com/DruBru,3.7,53345.0,18592.0,226.0
Dubtown Brewing Company,,1,brewpub,201 Main Avenue South,Renton,98057,King,47.481022,-122.2044169,2019,0,0,1,0,https://untappd.com/w/dubtown-brewing-company/436623,3.72,3584.0,1025.0,17.0
Dunagan Irish Pub and Brewery,,1,micro,3222 56th St,Gig Harbor,98335,Pierce,47.252925,-122.439425,2021,0,0,1,0,https://untappd.com/DunaganBrewingCompany,3.55,3381.0,1076.0,0.0
Dungeness Brewing Company,,1,micro,4017 S Mt Angeles Road,Port Angeles,98362,Clallam,48.088854,-123.418159,2012,0,1,1,0,https://untappd.com/DungenessBrewingCompany,3.39,522.0,281.0,0.0
Dwinell Country Ales,,1,micro,206 West Broadway Street,Goldendale,98620,Klickitat,45.82292352,-120.8247793,2017,1,0,0,0,https://untappd.com/DwinellCountyAles,3.96,16564.0,7088.0,83.0
Dystopian State Brewing Company,,1,micro,611 S Baker St,Tacoma,98402,Pierce,47.25836177,-122.4433036,2016,0,0,0,0,https://untappd.com/DystopianStateBrewingCompany,3.68,14346.0,4771.0,44.0
E2W Brewing,,1,micro,12913 Shady Glen Ave SE,Olalla,98359,Kitsap,47.432463,-122.594069,2020,0,1,1,1,https://untappd.com/E2WBrewing,3.69,459.0,256.0,0.0
E9 Brewing Company,,1,micro,2506 Fawcett Ave,Tacoma,98402,Pierce,47.238206,-122.440021,1995,0,0,1,0,https://untappd.com/EngineHouseNo9,3.86,117945.0,34438.0,367.0
E9 Firehouse and Gastropub,,1,brewpub,611 N Pine St,Tacoma,98406,Pierce,47.2564305,-122.473523,1971,0,1,0,0,https://untappd.com/EngineHouseNo9,3.86,117945.0,34438.0,367.0
Echoes Brewing Company,,1,micro,19815 Viking Ave Nw,Poulsbo,98370,Kitsap,47.74292547,-122.6570659,2020,0,0,1,0,https://untappd.com/EchoesBrewing,3.74,4215.0,1809.0,95.0
El Sueñito Brewing Company,,1,micro,1926 Humboldt St,Bellingham,98225,Whatcom,48.75625625,-122.4675463,2022,0,0,0,0,https://untappd.com/ElSuenito,3.89,1363.0,620.0,84.0
Elk Head Brewing Company,,1,micro,28120 Hwy 410 A-#10,Buckley,98321,Pierce,47.1590532,-122.05279,2005,0,1,1,0,https://untappd.com/CMORGANROTH,3.71,5244.0,1769.0,12.0
Ellensburg Brewery Company,,1,brewpub,206 N Main St,Ellensburg,98926,Kittitas,46.99354528,-120.5484207,2021,0,0,0,0,https://untappd.com/EllensburgBrewery,3.72,753.0,357.0,3.0
Elliott Bay Brewing Company,Lake City,0,brewpub,12537 Lake City Way Northeast,Seattle,98125,King,47.719712,-122.2951078,2001,1,0,1,0,https://untappd.com/ElliottBay,3.64,57083.0,13158.0,97.0
Elliott Bay Brewing Company,Genesee West Seattle,1,brewpub,4720 California Ave Sw,Seattle,98116,King,47.56067351,-122.3866724,2001,1,0,1,0,https://untappd.com/ElliottBay,3.64,57083.0,13158.0,97.0
Elliott Bay Brewing Company,Burien,0,large,255 SW 152nd St,Burien,98166,King,47.46677673,-122.3373361,2001,1,0,1,0,https://untappd.com/ElliottBay,3.64,57083.0,13158.0,97.0
Elysian Brewing,Capitol Hill,1,large,1221 E Pike St,Seattle,98122,King,47.61402422,-122.3164608,1999,0,0,1,0,https://untappd.com/ElysianBrewing,3.74,2.32,638811.0,3087.0
Elysian Brewing,Pioneer Square,0,large,542 1St Ave S,Seattle,98104,King,47.59710039,-122.3340707,1999,0,0,1,0,https://untappd.com/ElysianBrewing,3.74,2.32,638811.0,3087.0
Elysian Brewing,Industrial District,0,micro,5510 Airport Way S,Seattle,98108,King,47.5533243,-122.3205871,1999,0,0,1,0,https://untappd.com/ElysianBrewing,3.74,2.32,638811.0,3087.0
Ethereal Meads,,1,brewpub,18109 NE 72nd Ave,Battle Ground,98604,Clark,45.753112,-122.597776,2018,0,0,0,0,https://untappd.com/w/ethereal-meads/174093,3.58,1085.0,689.0,0.0
Everybody's Brewing,,1,micro,151 E Jewitt Blvd,White Salmon,98672,Klickitat,45.7273156,-121.48538,2009,1,1,1,0,https://untappd.com/EverybodysBrewing,3.74,133277.0,45742.0,312.0
Exit 16 Brewing,,1,micro,34202 NE Finalburg Rd,La Center,98629,Clark,45.869122,-122.631814,2022,0,0,0,0,https://untappd.com/Exit16Brewing,3.55,165.0,121.0,9.0
Explorer Brewing Company,,1,micro,209 Ash St,Kelso,98626,Cowlitz,46.14223043,-122.9120371,2019,1,0,1,0,https://untappd.com/ExplorerBrewingCompany,3.74,1525.0,469.0,20.0
Fair Isle Brewing,,1,brewpub,936 NW 49th St,Seattle,98107,King,47.66446655,-122.3691185,2017,1,0,1,0,https://untappd.com/Fair_Isle_Brewing,4.1,42025.0,11720.0,441.0
Farmstrong Brewing Company,,1,micro,110 Stewart Rd,Mount Vernon,98273,Skagit,48.44308447,-122.3427346,2015,0,1,0,0,https://untappd.com/FarmStrong1,3.61,23218.0,9459.0,41.0
Fast Fashion Beer,,1,micro,1723 1st Ave S,Seattle,98134,King,47.5874822,-122.334465,2021,0,0,1,0,https://untappd.com/FastFashion,4.03,28236.0,9107.0,438.0
Fathom and League Hop Yard Brewery,,1,micro,360 Grandview Dr,Sequim,98382,Clallam,48.10295,-123.15689,2010,0,1,1,0,https://untappd.com/w/fathom-and-league-hop-yard-brewery/11933,3.61,236.0,167.0,0.0
Fermentation Initiative,,1,micro,626 S Tacoma Way Suite D,Tacoma,98409,Pierce,47.23115343,-122.472903,2019,0,0,1,0,https://untappd.com/w/fermentation-initiative/495513,3.91,527.0,116.0,16.0
Figurehead Brewing Company,,1,brewpub,4001 21St Ave W Unit B,Seattle,98199,King,47.655754,-122.383509,2016,1,1,1,0,https://untappd.com/FigureheadBrewingCompany,3.7,11168.0,3291.0,105.0
Fired Up Brewing,,1,Micro,1235 Main St,Colville,99114,Stevens,48.5325833,-117.90358,2020,0,0,1,0,https://untappd.com/w/fired-up-brewing/385634,3.64,1139.0,423.0,1.0
Five Dollar Ranch Brewing Company,,1,micro,1570 Beet Road,Walla Walla,99362,Walla Walla,46.00330493,-118.4184413,1999,1,0,1,0,https://untappd.com/FiveDollarRanchBrewing,3.98,1069.0,378.0,11.0
Five Dons Brewing,,1,micro,1158 11th Ave,Longview,98632,Cowlitz,46.13417992,-122.9326287,2014,0,0,0,0,https://untappd.com/FiveDonsBrewing,3.59,2130.0,938.0,0.0
Floodland Brewing,,1,brewpub,3806 Woodland Park Ave North Suite 100,Seattle,98103,King,47.65298328,-122.3434898,2018,0,1,1,0,https://untappd.com/w/floodland-brewing/379455,4.43,63663.0,8433.0,610.0
Flyers Restaurant and Brewery,,1,micro,32295 State Route 20,Oak Harbor,98277,Island,48.29909489,-122.6522856,2005,0,1,1,0,https://untappd.com/w/flyers-restaurant-and-brewery/538,3.52,11487.0,5520.0,7.0
Flying Bike Cooperative Brewery,,1,micro,8570 Greenwood Ave N,Seattle,98103,King,47.69127653,-122.355187,2015,1,0,0,0,https://untappd.com/FlyingBikeCoop,3.76,23106.0,4646.0,30.0
Flying Lion Brewing,,1,micro,5041 Rainier Ave S,Seattle,98118,King,47.55599035,-122.2842825,2014,1,1,1,0,https://untappd.com/Flying_Lion_Brewing,3.71,19088.0,6397.0,40.0
Foggy Noggin Brewing,,1,micro,22329 5rd Avenue Se,Bothell,98021,Snohomish,47.794526,-122.16108,2010,1,1,1,0,https://untappd.com/foggynogginbrewing,3.59,12435.0,3206.0,2.0
For the Love of God Brewing,,1,micro,2617 W Northwest Blvd,Spokane,99205,Spokane,47.685429,-117.4497909,2020,0,0,1,0,https://untappd.com/ForTheLoveOfGodBrewing,4.1,6092.0,1189.0,6.0
Formula Brewing,,1,micro,1875 NW Poplar Way,Issaquah,98027,King,47.549578,-122.066248,2020,1,0,1,0,https://untappd.com/Formula_Brewing,3.75,9282.0,2133.0,83.0
Fortside Brewing Company,,1,micro,2200 NE Andresen #B,Vancouver,98661,Clark,45.63847877,-122.6010678,2014,1,1,1,0,https://untappd.com/FortsideBrewing,3.81,40750.0,12914.0,139.0
Forward Operating Base Brewing Company,,1,brewpub,2750 Williamson Place NW #100,Dupont,98327,Pierce,47.1077533,-122.62308,2017,0,1,1,0,https://untappd.com/FOBBrewingCo,3.83,4686.0,1433.0,9.0
Fountain Brewing,,1,micro,2416 Meridian St,Bellingham,98225,Whatcom,48.7625531,-122.4858536,2022,0,0,0,0,https://untappd.com/FountainBrewing,3.71,59.0,27.0,5.0
Four Generals Brewing,,1,micro,229 Wells Ave S,Renton,98057,King,47.4801424,-122.205586,2016,1,1,1,0,https://untappd.com/Four_Generals_Brewing,3.74,9876.0,2784.0,28.0
Four Horsemen Brewery,,1,micro,30221 148th Ave Se,Kent,98042,King,47.3309245,-122.14497,2016,0,1,0,0,https://untappd.com/FourHorsemenBrewery,3.43,1297.0,514.0,7.0
Four-Eyed Guys Brewing Company,,1,regional,910 W Indiana Ave,Spokane,99205,Spokane,47.67501697,-117.425459,2021,0,0,0,0,https://untappd.com/w/four-eyed-guys-brewing/325691,3.8,2378.0,756.0,12.0
Fremont Brewing Company,,1,micro,3409 Woodland Pk Ave N,Seattle,98103,King,47.64889041,-122.3441613,2009,1,1,1,0,https://untappd.com/fremontbrewing,4.04,1.25,238982.0,3684.0
Fringe Brewing,,1,micro,5640 3rd Ave,Ferndale,98248,Whatcom,48.846042,-122.59303,2019,1,0,1,0,https://untappd.com/FrinGeBrewing,3.73,1747.0,688.0,6.0
Future Primitive Brewing,,1,micro,9832 14th Ave Sw,Seattle,98106,King,47.51429325,-122.352378,2018,1,0,1,0,https://untappd.com/w/future-primitive-brewing/415188,3.73,17742.0,7012.0,241.0
Gallaghers Where U Brew,,1,micro,180 W Dayton St Suite #105,Edmonds,98020,Snohomish,47.8089416,-122.3867089,2005,0,0,0,0,https://untappd.com/w/gallaghers-where-u-brew/7847,3.64,4469.0,1632.0,7.0
Garden Path Fermentation,,1,micro,11653 Higgins Airport Way,Burlington,98233,Skagit,48.4764227,-122.41778,2018,1,0,1,0,https://untappd.com/GardenPathFermentation,3.82,24712.0,11788.0,96.0
Garland Brew Werks,,1,brewpub,603 W Garland Ave,Spokane,99205,Spokane,47.693348,-117.42031,2020,0,0,0,0,https://untappd.com/GarlandBrewWerks,3.84,3269.0,731.0,29.0
Geaux Brewing,,1,micro,425 E Main St,Auburn,98002,King,47.3082013,-122.2232925,2013,0,1,1,0,https://untappd.com/GeauxBrewing,3.8,19865.0,4775.0,0.0
Genus Brewing,,1,regional,14109 E Sprague Ave #8,Spokane Valley,99216,Spokane,47.69331222,-117.4203837,2013,0,1,1,0,https://untappd.com/GenusBrewingCo,3.88,2080.0,612.0,9.0
Georgetown Brewing Company,,1,micro,5200 Denver Ave S,Seattle,98108,King,47.55525135,-122.3255385,2003,1,1,1,0,https://untappd.com/gtb,3.83,478525.0,128563.0,1271.0
Ghost Runners Brewery,,1,micro,4216 NE Minnehaha St #108,Vancouver,98661,Clark,45.668467,-122.628189,2012,0,1,0,0,https://untappd.com/GhostRunners,3.72,14841.0,6555.0,25.0
Ghostfish Brewing Company,,1,micro,2942 1St Ave S,Seattle,98134,King,47.57733551,-122.3340811,2015,1,1,1,0,https://untappd.com/GhostfishBrewingCompany,3.47,61285.0,30660.0,289.0
Gig Harbor Brewing,Tacoma,0,taproom,3120 S Tacoma Way,Tacoma,98409,Pierce,47.22806016,-122.4772681,2015,0,1,1,0,https://untappd.com/GigHarborBrewing,3.63,11438.0,5007.0,25.0
Gig Harbor Brewing,Gig Harbor,1,taproom,3155 Harborview Dr,Gig Harbor,98335,Pierce,47.32976288,-122.5813254,2015,0,1,1,0,https://untappd.com/GigHarborBrewing,3.63,11438.0,5007.0,25.0
Golden Handle Brewing Company,,1,micro,111 S Cedar St,Spokane,99201,Spokane,47.65622004,-117.4323539,2019,0,0,1,1,https://untappd.com/GoldenHandleProject,3.8,1074.0,384.0,1.0
Good Brewing Company,,1,brewpub,5817 238th St SE #3,Woodinville,98072,King,47.78256587,-122.1547295,2017,0,1,1,0,https://untappd.com/GBC2017,3.88,10345.0,2462.0,23.0
Grains Of Wrath Brewing,,1,micro,425 NW Birch Street,Camas,98607,Clark,45.5856554,-122.4056,2018,1,0,1,0,https://untappd.com/GrainsOfWrath,3.93,68414.0,14827.0,400.0
Gruff Brewing Company,,1,micro,104 E Maple St #101,Bellingham,98225,Whatcom,48.74755229,-122.4821137,2015,0,1,1,0,https://untappd.com/GruffBrewingCompany,3.76,7172.0,2497.0,66.0
Halcyon Brewing,,1,micro,8564 Greenwood Ave N,Seattle,98103,King,47.69122874,-122.3551865,2022,1,0,1,0,https://untappd.com/HalcyonBrewingCo,3.82,1856.0,824.0,45.0
Hale's Ales,,1,micro,4301 Leary Wy NW,Seattle,98107,King,47.659292,-122.3657039,1983,0,0,0,1,https://untappd.com/HalesAlesBrewery,3.58,111645.0,45110.0,5.0
Half Lion Brewing Company,,1,micro,1723 W Valley Hwy E Suite 101,Sumner,98390,Pierce,47.241157,-122.255376,2016,1,1,1,1,https://untappd.com/HalfLion,3.51,14003.0,6080.0,4.0
Haywire Brewing Company,,1,micro,12125 Treosti Rd,Snohomish,98290,Snohomish,47.91234558,-122.0900696,2017,0,1,0,0,https://untappd.com/HaywireBrewing,3.81,6755.0,1494.0,38.0
Headless Mumby Brewing Company,,1,micro,232 Division Street Northwest,Olympia,98502,Thurston,47.04650843,-122.9257366,2021,1,0,1,0,https://untappd.com/HeadlessMumbyBrewingCo,3.81,7333.0,2755.0,29.0
Headworks Brewing,,1,micro,1110 Marshall Ave,Enumclaw,98022,King,47.2045135,-121.9878259,2021,0,0,0,0,https://untappd.com/HeadworksBrewing,3.71,4473.0,1265.0,24.0
Heathen Brewing,Salmon Creek,0,micro,5612 NE 119th St,Vancouver,98686,Clark,45.7087312,-122.6136273,2012,1,0,1,0,https://untappd.com/HeathenBrewing,3.85,102653.0,31194.0,136.0
Heathen Brewing,Downton Vancouver,1,micro,1109 Washington Street,Vancouver,98660,Clark,45.6300071,-122.6723551,2012,1,0,1,0,https://untappd.com/HeathenBrewing,3.85,102653.0,31194.0,136.0
Hellbent Brewing Company,,1,micro,13035 Lake City Way Ne,Seattle,98125,King,47.72321374,-122.2931793,2015,1,1,1,0,https://untappd.com/HellbentBrewingCompany,3.83,81854.0,23298.0,258.0
Hemlock State Brewing Company,,1,contract brewer,23601 56th Ave W Suite 400,Mountlake Terrace,98043,Snohomish,47.784669,-122.30831,2016,1,1,1,0,https://untappd.com/Hemlock_State,3.78,7553.0,1831.0,29.0
Here Today Brewery and Kitchen,,1,micro,2815 Elliott Ave Suite 101,Seattle,98121,King,47.61486702,-122.3537311,2020,1,0,1,0,https://untappd.com/HereTodaySeattle_,3.89,4059.0,1882.0,98.0
Hideaway Brewing Company,,1,micro,18731 SE 314th St,Aurbun,98092,Kig,47.3208496,-122.176449,2014,0,1,1,1,https://untappd.com/HideawayBrewingCompany,3.71,1047.0,514.0,1.0
High Steel Beer Company,,1,micro,233 S 1St St,Shelton,98584,Mason,47.21170988,-123.100443,1999,1,0,1,0,https://untappd.com/HighSteelBeerCo,3.78,903.0,436.0,14.0
Hildegard Ferments and Botanicals,,1,micro,1150 NW 46th St,Seattle,98107,King,47.6627151,-122.3718421,2022,1,0,0,0,https://untappd.com/HildegardFermentsBotanicals,4.04,302.0,179.0,24.0
Hoh River Brewery,,1,micro,2442 Mottman Rd Sw,Tumwater,98512,Thurston,47.0254333,-122.935464,2014,0,1,1,0,https://untappd.com/HohRiverBrewery,3.81,2766.0,967.0,12.0
Holy Mountain Brewing Company,,1,brewpub,1421 Elliott Ave W,Seattle,98119,King,47.630821,-122.3740032,2014,0,1,1,0,https://untappd.com/HolyMountainBrewing,4.12,340082.0,57041.0,855.0
Hood Canal Brewery,,1,micro,26499 Bond Rd Ne,Kingston,98346,Kitsap,47.8038314,-122.5731593,1996,0,1,1,0,https://untappd.com/w/hood-canal-brewery/8254,3.4,7557.0,3614.0,20.0
Hop Chaos Brewing Company,,1,micro,10115 N Newport Hwy Suite A,Spokane,99218,Spokane,47.74870553,-117.4034444,2021,0,0,1,0,https://untappd.com/HopChaosBrewingCompany,3.99,1972.0,314.0,24.0
Hops and Seed Brewing Company,,1,micro,9206 200th St SE Suite C-5,Snohomish,98290,Snohomish,47.7640209,-122.14992,2022,0,0,1,0,https://untappd.com/HopsAndSeedBrewery,3.77,891.0,344.0,7.0
Hopworks Urban Brewery,,1,micro,17707 SE Mill Plain Blvd,Vancouver,98683,Clark,45.61700233,-122.4953194,2007,0,1,0,0,https://untappd.com/HopworksBeer,3.7,389592.0,111138.0,486.0
Hoquiam Brewing Company,,1,micro,526 8th Street,Hoquiam,98550,Grays Harbor,46.97562514,-123.8861778,2018,0,1,1,0,https://untappd.com/HoquiamBrewing,3.84,3506.0,1279.0,31.0
Horse Heaven Hills Brewery,,1,micro,1118 Meade Ave,Prosser,99350,Benton,46.20447179,-119.7706356,2009,0,1,1,0,https://untappd.com/w/horse-heaven-hills-brewery/7268,3.59,2649.0,893.0,12.0
Humble Abode Brewing,,1,brewpub,1620 E Houston Ave,Spokane,99217,Spokane,47.7167163,-117.3866532,2019,1,0,1,0,https://untappd.com/HumbleAbodeBrewing,4.1,13328.0,2364.0,84.0
Ice Harbor Brewing Company,downtown Kennewick,1,brewpub,10 E. Bruneau Avenue,Kennewick,99336,Benton,46.2109818,-119.1198261,1996,1,1,1,0,https://untappd.com/IceHarborBrewingCo,3.58,17311.0,5895.0,37.0
Ice Harbor Brewing Company,Clover Island,0,brewpub,350 Colver Island Dr,Kennewick,99336,Benton,46.21712032,-119.1112762,1996,1,1,1,0,https://untappd.com/IceHarborBrewingCo,3.58,17311.0,5895.0,37.0
Icicle Brewing Company,,1,brewpub,935 Front St,Leavenworth,98826,Chelan,47.59620095,-120.6596561,2011,1,1,1,0,https://untappd.com/iciclebrewing,3.84,125935.0,40027.0,546.0
Iconic Brewing,,1,micro,2470 Henderson Loop,Richland,99354,Benton,46.32272295,-119.3050306,1996,0,0,1,0,https://untappd.com/w/iconic-brewing/509207,3.46,620.0,218.0,5.0
In The Shadow Brewing,,1,micro,19731 Old Burn Rd,Arlington,98223,Snohomish,48.175899,-122.11277,2015,1,0,1,0,https://untappd.com/IN_The_Shadow_Brewing,3.82,1523.0,548.0,2.0
Inland Ale Works,,1,brewpub,505 1St St,Cheney,99004,Spokane,47.48762901,-117.5748795,2018,0,0,1,0,https://untappd.com/InlandAleWorks,3.79,718.0,161.0,1.0
Iron Goat Brewing,,1,regional,1302 W 2nd Ave,Spokane,99201,Spokane,47.65452677,-117.4312846,2012,1,1,1,0,https://untappd.com/irongoatbrewing,3.76,50981.0,14551.0,48.0
Iron Horse Brewery,,1,micro,1000 Prospect St Suite 4,Ellensburg,98926,Kittitas,46.999581,-120.564737,2005,1,1,1,0,https://untappd.com/ironhorsebrewery,3.75,187304.0,67421.0,254.0
Irrelevant Beer,,1,micro,110 E 17th St,Vancouver,98660,Clark,45.6343758,-122.6711705,2022,0,0,0,0,https://untappd.com/IrrelevantBeer,3.85,1552.0,765.0,181.0
Island Hoppin' Brewery,,1,micro,33 Hope Lane,Eastsound,98245,San Juan,48.70268029,-122.9152528,2011,1,1,1,0,https://untappd.com/IslandHoppinBrewery,3.57,17012.0,6780.0,22.0
Jellyfish Brewing Company,,1,micro,917 South Nebraska Street,Seattle,98108,King,47.54894045,-122.3202516,2017,1,1,1,0,https://untappd.com/Jellyfish_Brewing_Company,3.68,26344.0,10897.0,118.0
Jones Creek Brewing,,1,micro,173 Beam Rd,Chehalis,98532,Lewis,46.58829204,-123.2784835,1996,0,1,1,0,https://untappd.com/JonesCreek,3.93,1415.0,494.0,17.0
Kulshan Brewing Company,Sunnyland Taproom,1,micro,2238 James Street,Bellingham,98225,Whatcom,48.75961551,-122.4647934,2012,1,1,1,0,https://untappd.com/KulshanBrewingCompany,3.74,79914.0,23182.0,164.0
Kulshan Brewing Company,Roosevelt (K2) Taproom,0,seasonal,1538 Kentucky Street,Bellingham,98225,Whatcom,48.7573938,-122.4536078,2012,1,1,1,0,https://untappd.com/KulshanBrewingCompany,3.74,79914.0,23182.0,164.0
Kulshan Brewing Company,downtown Bellingham waterfront,0,brewpub,298 W Laurel St,Bellingham,98225,Whatcom,48.7477082,-122.4850955,2012,1,1,1,0,https://untappd.com/KulshanBrewingCompany,3.74,79914.0,23182.0,164.0
La Conner Brewing Company,,1,planning,117 S First Box 397,La Conner,98257,Skagit,48.3917559,-122.49585,2002,0,0,0,0,https://untappd.com/LaConnerBrewingCompany,3.53,8592.0,2966.0,40.0
Ladd and Lass Brewing,,1,brewpub,722 NE 45th St,Seattle,98105,King,47.66139833,-122.3204876,2018,1,0,1,0,https://untappd.com/LaddandLassBrewing,3.99,8002.0,2526.0,146.0
Laht Neppur Brewing Company,,1,micro,444 Preston Ave,Waitsburg,99361,Walla Walla,46.270044,-118.148769,2006,0,1,1,0,https://untappd.com/LahtNeppurBrewing,3.42,7881.0,3892.0,0.0
Lake Chelan Brewery,,1,micro,50 Wapato Way,Manson,98831,Chelan,47.8852911,-120.1590444,2013,0,0,0,0,https://untappd.com/w/lake-chelan-brewing-company/37187,3.46,3517.0,1368.0,11.0
Lake Stevens Brewing Company,,1,micro,2010 Grade Rd,Lake Stevens,98258,Snohomish,48.01611239,-122.0632558,2012,1,1,1,0,https://untappd.com/Lake_Stevens_Brewing_Company,3.87,8574.0,2142.0,33.0
Lantern Brewing,,1,micro,938 N 95th Street,Seattle,98103,King,47.69789685,-122.346672,2011,0,1,1,0,https://untappd.com/LanternBrewing,3.65,14116.0,4364.0,27.0
Larrabee Lager Company,,1,micro,4151 Guide Meridian Rd #100,Bellingham,98226,Whatcom,48.79191656,-122.4905122,2022,1,0,0,0,https://untappd.com/w/larrabee-lager-company/546009,3.8,901.0,375.0,68.0
Lazy Boy Brewing,,1,taproom,715 100th St SE Suite A-1,Everett,98208,Snohomish,47.90816039,-122.2209379,2006,0,1,1,0,https://untappd.com/lazyboybrewing,3.58,24713.0,11112.0,12.0
Logan Brewing Company,,1,micro,510 SW 151St St,Burien,98166,King,47.4678566,-122.3409856,2021,1,0,1,0,https://untappd.com/LoganBrewingCompany,3.86,8700.0,2554.0,124.0
Loowit Brewing Company,,1,micro,507 Columbia Street,Vancouver,98660,Clark,45.6252334,-122.6736359,2012,1,1,1,0,https://untappd.com/LoowitBrewing,3.75,76814.0,24864.0,175.0
Lopez Island Brewing Company,,1,taproom,135 Lopez Road Suite B,Lopez Island,98261,San Juan,48.5227099,-122.9132288,2016,1,1,1,0,https://untappd.com/LopezIslandBrewingCompany,3.67,606.0,399.0,4.0
Lost Woods Brewery,,1,micro,28002 WA-410 suite 2,Buckley,98321,Pierce,47.15975658,-122.0559237,2017,0,1,1,0,https://untappd.com/LostWoodsBrewery,3.76,3672.0,1029.0,2.0
Lovecraft Brewing Company,,1,brewpub,275 5th Street Suite 101,Bremerton,98337,Kitsap,47.56640891,-122.6257846,2016,0,1,1,0,https://untappd.com/LoveCraftBrewingCompany,3.54,3451.0,1272.0,1.0
Lowercase Brewing,,1,micro,6235 Airport Way S,Seattle,98108,King,47.547723,-122.3146203,2014,1,1,1,0,https://untappd.com/Lowercasebeer,3.73,25511.0,9099.0,83.0
Lucky Envelope Brewing,,1,micro,907 NW 50th Street,Seattle,98107,King,47.66495806,-122.3688462,2015,1,1,0,0,https://untappd.com/LuckyEnvelopeBrewing,3.75,59659.0,19109.0,293.0
Lumber House Brewery,,1,micro,21830 284th Ave SE,Maple Valley,98038,King,47.32607774,-122.0103551,2015,0,1,1,0,https://untappd.com/LumberHouseBrewery,3.72,6199.0,1764.0,8.0
Lumberbeard Brewing,,1,regional,25 E 3rd Ave,Spokane,99202,Spokane,47.653684,-117.41007,2020,1,0,1,0,https://untappd.com/LumberbeardBrewing,3.96,38640.0,13161.0,398.0
Mac and Jack's Brewing Company,,1,micro,17825 NE 65th St,Redmond,98052,King,47.66369585,-122.102815,1993,1,1,1,0,https://untappd.com/MacJacksBrewingCompany,3.68,137378.0,64870.0,281.0
Machine House Brewery,,1,taproom,5718 Rainier Ave S,Seattle,98118,King,47.5507121,-122.277164,2013,1,1,1,0,https://untappd.com/MachineHouseBrewery,3.69,32700.0,11374.0,101.0
Maelstrom Brewing Company,,1,brewpub,11014 120th Ave Ne,Kirkland,98033,King,47.69913819,-122.1809653,2017,0,1,0,0,https://untappd.com/MaelstromBrewing,3.7,4953.0,1035.0,11.0
Magnuson Cafe and Brewery,,1,micro,7801 62nd Ave Ne,Seattle,98115,King,47.6881653,-122.2649134,2018,1,0,1,0,https://untappd.com/MagnusonCafeBrewery,3.63,5071.0,1867.0,37.0
Maritime Pacific Brewing Company,,1,brewpub,1111 NW Ballard Way,Seattle,98107,King,47.66284715,-122.371031,1990,1,1,0,0,https://untappd.com/MaritimePacificBrewingCompany,3.57,77867.0,32348.0,79.0
Masters Brewhouse,,1,micro,831 S Main St,Deer Park,99006,Spokane,47.945254,-117.4751514,2020,0,0,0,0,https://untappd.com/w/masters-brewhouse/420247,3.75,675.0,218.0,4.0
Matchless Brewing,,1,brewpub,8036 River Dr SE #208,Tumwater,98501,Thurston,46.9708364,-122.88502,2016,1,1,0,0,https://untappd.com/MatchlessBrewing,3.86,204713.0,44102.0,630.0
McMenamins Anderson School Brewery,,1,brewpub,18607 Bothell Way NE,Bothell,98011,King,47.76388,-122.2080688,1983,1,0,0,0,https://untappd.com/McMenamins,3.67,447531.0,69763.0,909.0
McMenamins East Vancouver Brewery,,1,brewpub,1900B NE 162nd Ave Ste B107,Vancouver,98684,Clark,45.63673,-122.50778,1983,1,0,0,0,https://untappd.com/McMenamins,3.67,447531.0,69763.0,909.0
McMenamins Elks Temple,,1,brewpub,565 Broadway,Tacoma,98402,Pierce,47.25926,-122.4420142,1983,1,0,0,0,https://untappd.com/McMenamins,3.67,447531.0,69763.0,909.0
McMenamins Kalama Harbor Lodge,,1,brewpub,215 N Hendrickson Dr,Kalama,98625,Cowlitz,46.01724,-122.8511351,1983,1,0,0,0,https://untappd.com/McMenamins,3.67,447531.0,69763.0,909.0
McMenamins Mill Creek Brewery,,1,brewpub,13300 Bothell Everett Hwy Ste 304,Mill Creek,98012,Snohomish,47.87784,-122.2083569,1983,1,0,0,0,https://untappd.com/McMenamins,3.67,447531.0,69763.0,909.0
McMenamins Olympic Club Brewery,,1,brewpub,112 N Tower Ave,Centralia,98531,Lewis,46.71642,-122.9541121,1983,1,0,0,0,https://untappd.com/McMenamins,3.67,447531.0,69763.0,909.0
McMenamins On the Columbia Brewery,,1,brewpub,1801 SE Columbia River Dr,Vancouver,98661,Clark,45.61545,-122.6530699,1983,1,0,0,0,https://untappd.com/McMenamins,3.67,447531.0,69763.0,909.0
McMenamins Queen Anne Brewery,,1,brewpub,200 Roy St Ste 105,Seattle,98109,King,47.62552,-122.352602,1983,1,0,0,0,https://untappd.com/McMenamins,3.67,447531.0,69763.0,909.0
McMenamins Six Arms Brewery,,1,brewpub,300 E Pike St,Seattle,98122,King,47.61416,-122.3276777,1983,1,0,0,0,https://untappd.com/McMenamins,3.67,447531.0,69763.0,909.0
McMenamins Spar Cafe Brewery,,1,micro,114 4th Ave E,Olympia,98501,Thurston,47.045,-122.9013738,1983,1,0,0,0,https://untappd.com/McMenamins,3.67,447531.0,69763.0,909.0
Meatheads Smokehouse and Beer Works,,1,taproom,8928 Vernon Rd,Lake Stevens,98258,Snohomish,48.00222135,-122.1098734,2021,0,0,1,1,https://untappd.com/Meatheads21,3.71,1085.0,424.0,0.0
Menace Brewing,,1,taproom,2529 Meridian Street,Bellingham,98225,Whatcom,48.76355086,-122.4862211,2013,0,1,1,0,https://untappd.com/MenaceBrewing,3.67,5782.0,1949.0,21.0
Métier Brewing Company,,1,brewpub,14125 NE 189th St Suite B,Woodinville,98072,King,47.76422298,-122.1515601,2016,1,0,1,0,https://untappd.com/MetierBrewing,3.75,16181.0,5800.0,139.0
Middleton Brewing,,1,brewpub,607 Southeast Everett Mall Way,Everett,98208,Snohomish,47.91059997,-122.2248042,2013,0,1,1,0,https://untappd.com/MiddletonBrewingWA,3.71,11562.0,2505.0,9.0
Milepost 111 Brewing Company,,1,micro,407 Aplets Way,Cashmere,98815,Chelan,47.524234,-120.470178,2013,0,1,1,0,https://untappd.com/milepostbeer,3.37,1967.0,926.0,0.0
Mirage Beer Company,,1,taproom,927 S Homer St,Seattle,98108,King,47.550523,-122.3191768,2017,0,1,0,0,https://untappd.com/MirageBeerCo,4.06,33072.0,7857.0,25.0
Monka Brewing Company,,1,taproom,17211 15th Ave Ne,Shoreline,98155,King,47.75412478,-122.3135273,2018,0,0,1,0,https://untappd.com/MonkaBrewey,3.85,1326.0,560.0,0.0
Moonshot Brewing,,1,brewpub,8804 W Victoria Ave Ste 140,Kennewick,99336,Benton,46.228777,-119.240958,2019,1,0,0,0,https://untappd.com/Moonshot_Brewing,3.82,4969.0,878.0,58.0
Mother Fern Brewing,,1,brewpub,610 Pacific Ave,Tacoma,98402,Pierce,47.25791576,-122.440158,2021,0,0,1,1,https://untappd.com/MotherFernBrewing,3.86,532.0,199.0,0.0
Mount Olympus Brewing,,1,taproom,105 W Heron St,Aberdeen,98520,Grays Harbor,46.97327712,-123.8171792,2018,0,0,1,0,https://untappd.com/MountOlympusBrewing,3.86,8298.0,2911.0,82.0
Mountain Lakes Brewing Company,,1,taproom,105 W Heron St,Spokane,99201,Spokane,47.657891,-117.413453,2018,1,0,0,0,https://untappd.com/MountainLakesBrewCo,3.88,5219.0,1249.0,5.0
Mule and Elk Brewing Company,,1,micro,418 E 1st St Suite 5,Cle Elum,98922,Kittitas,47.19383354,-120.9322128,2016,0,1,1,0,https://untappd.com/MuleElkBrewingCo,3.67,3414.0,1289.0,13.0
Narrows Brewing Company,,1,brewpub,9007 S 19th Street,Tacoma,98466,Pierce,47.24346569,-122.5564963,2013,1,1,1,0,https://untappd.com/NarrowsBrewing,3.78,65382.0,17989.0,270.0
Natural 20 Brewing Company,,1,micro,15310 E Marietta Ave Ste 4,Spokane Valley,99216,Spokane,47.680793,-117.198498,2014,0,0,1,0,https://untappd.com/Natural20BrewingCo,3.85,2971.0,643.0,40.0
No Boat Brewing Company,,1,taproom,35214 SE Center Street #2,Snoqualmie,98065,King,47.5285744,-121.8707445,2016,1,1,0,0,https://untappd.com/NoBoatBrewingCompany,3.76,17748.0,5770.0,149.0
No Drought Brewing Company,,1,regional,10604 E 16th Ave,Spokane Valley,99206,Spokane,47.64233504,-117.2626058,2022,0,0,1,0,https://untappd.com/NoDroughtBrewingCo,3.78,698.0,209.0,9.0
No-Li Brewhouse,,1,taproom,1003 E Trent Box 2 Suite 180,Spokane,99202,Spokane,47.662698,-117.39419,2003,1,1,1,0,https://untappd.com/NoLiBrewhouse,3.66,211534.0,72421.0,317.0
North 47 Brewing Company,,1,brewpub,1000 Town Ctr NE #160,Tacoma,98422,Pierce,47.30098342,-122.4354485,2015,0,1,1,0,https://untappd.com/North47BrewingCo,3.65,4211.0,1345.0,13.0
North Fork Brewery,,1,taproom,6186 Mount Baker Hwy,Deming,98244,Whatcom,48.89023277,-122.1515053,1997,1,0,1,0,https://untappd.com/TheNorthForkBrewery,3.89,10866.0,3203.0,71.0
North Jetty Brewing,,1,taproom,4200 Pacific Way,Seaview,98017,King,46.33317158,-124.0546726,2014,1,1,1,0,https://untappd.com/NorthJettyBrewing,3.79,31191.0,10395.0,77.0
North Sound Brewing Company,,1,brewpub,17406 Washington 536,Mount Vernon,98273,Skagit,48.431553,-122.3702,2010,1,1,0,0,https://untappd.com/NorthSoundBrewingCompany,3.72,14609.0,5008.0,20.0
Northern Ales,,1,brewpub,325 W 3rd Ave,Kettle Falls,99141,Stevens,48.61016972,-118.059909,2014,0,1,1,1,https://untappd.com/NorthernAles,3.5,2218.0,991.0,0.0
Northwest Brewing Company,,1,micro,610 Pacific Ave,Tacoma,98402,King,47.25788663,-122.4401044,2007,0,0,0,0,https://untappd.com/NorthwestBrewingCompany,3.52,65893.0,33187.0,59.0
Northwest Passage Craft Brewery,,1,taproom,605 Esther St,Vancouver,98660,Clark,45.62821741,-122.6727549,2017,0,1,0,0,https://untappd.com/NorthwestPassageCraftBrewery,3.5,442.0,296.0,0.0
Northwest Peaks Brewery,,1,brewpub,5718 Rainier Ave S,Seattle,98118,King,47.55099284,-122.2774345,2011,0,1,1,1,https://untappd.com/nwpeaksbrewery,3.54,21356.0,7291.0,1.0
Northwood Public House and Brewery,,1,micro,1401 SE Rasmussen Blvd #101,Battleground,98604,Clark,45.775079,-122.523019,2014,0,1,1,0,https://untappd.com/LittleDipperBrewingCompany,3.76,2113.0,865.0,2.0
Nun Chuck's Brewing Company,,1,taproom,18609 76th Ave W C,Lynnwood,98037,Snohomish,47.82961976,-122.3372621,2006,0,0,1,0,https://untappd.com/w/nun-chucks-brewing-company/475764,3.92,637.0,241.0,5.0
Obec Brewing,,1,micro,1144 NW 52nd Street,Seattle,98107,King,47.6666932,-122.3725339,2017,1,1,1,0,https://untappd.com/ObecBrewing,3.64,19610.0,6623.0,149.0
Odd Otter Brewing Company,,1,micro,716 Pacific Ave,Tacoma,98402,Pierce,47.25677,-122.439519,2014,0,1,1,0,https://untappd.com/OddOtter,3.71,31994.0,8548.0,30.0
Odin Brewing Company,,1,taproom,402 Baker Blvd,Tukwila,98188,King,47.45871185,-122.2520593,2009,0,1,1,1,https://untappd.com/OdinBrewing,3.66,89619.0,37641.0,12.0
Off Camber Brewing,,1,taproom,6506 114th Ave Ct E,Puyallup,98372,Pierce,47.19825258,-122.2773277,2017,0,1,1,0,https://untappd.com/JamesTheBrewer,3.81,2100.0,734.0,5.0
Ogres Brewing,,1,brewpub,7693 Cultus Bay Rd,Clinton,98236,Island,47.93163176,-122.389573,2019,1,1,1,0,https://untappd.com/w/ogres-brewing/261870,3.47,352.0,227.0,0.0
Old Schoolhouse Brewery,,1,brewpub,155 Riverside Dr Box 112,Winthrop,98862,Okanogan,48.4782175,-120.18652,1993,1,1,1,0,https://untappd.com/OldSchoolhouseBrewery,3.9,64335.0,21096.0,154.0
Old Stove Brewing Company,,1,taproom,1901 Western Avenue Suite A,Seattle,98101,King,47.61002,-122.343413,2016,1,1,1,0,https://untappd.com/w/old-stove-brewing-co/246787,3.72,109455.0,32779.0,651.0
Optimism Brewing Company,,1,brewpub,1158 Broadway,Seattle,98122,King,47.61280703,-122.3205273,2015,0,1,1,1,https://untappd.com/OptimismBrewing,3.59,53872.0,14239.0,1.0
Otherlands Beer,,1,taproom,2121 Humboldt St,Bellingham,98225,Whatcom,48.75847585,-122.4681985,2021,0,0,1,0,https://untappd.com/OtherlandsBeer,4.03,7436.0,2278.0,132.0
Outer Planet Craft Brewing,,1,brewpub,1812 12th Avenue Suite 100,Seattle,98122,King,47.61783778,-122.3167738,2015,1,1,1,0,https://untappd.com/OuterPlanetBrewing,3.64,11703.0,3820.0,49.0
Outlander Brewery and Pub,,1,brewpub,225 N 36th St,Seattle,98103,King,47.652371,-122.355414,2012,0,1,1,0,https://untappd.com/OutlanderBrewing,3.65,20323.0,6257.0,6.0
Packwood Brewing Company,,1,nano,12298 US-12,Packwood,98361,Lewis,46.60570825,-121.6712647,2022,0,0,0,0,https://untappd.com/w/packwood-brewing-co/405350,3.74,4939.0,1945.0,15.0
Paddle Brewing Company,,1,brewpub,23021 SE 58th St,Issaquah,98029,King,47.550431,-122.032156,2019,0,0,0,1,https://untappd.com/PaddleBrewingCompany,3.66,96.0,64.0,0.0
Paper Street Brewing Company,,1,taproom,241 Fanning Rd,Pasco,99301,Franklin,46.309907,-119.214113,2016,0,1,1,0,https://untappd.com/PaperStreetBrewingCo,3.47,1446.0,529.0,8.0
Paradise Creek Brewery,Downtown Restaurant,1,taproom,245 SE Paradise St,Pullman,99163,Whitman,46.72873725,-117.1803011,2010,1,1,1,0,https://untappd.com/paradisecreek,3.72,34321.0,14589.0,44.0
Paradise Creek Brewery,Trailside Taproom,0,micro,505 SE Riverside St,Pullman,99163,Whitman,46.72593287,-117.169861,2010,1,1,1,0,https://untappd.com/paradisecreek,3.72,34321.0,14589.0,44.0
Paramour Brewing Company,,1,brewpub,6520 S Waneta Rd,Spokane,99223,Spokane,47.59421849,-117.3564973,2021,0,0,1,0,https://untappd.com/w/paramour-brewing/457368,3.77,530.0,388.0,0.0
Parker's Steakhouse and Brewery,,1,brewpub,1300 Mount Saint Helens Way Ne,Castle Rock,98611,Cowlitz,46.28728,-122.898885,2013,0,0,0,0,https://untappd.com/w/parker-s-steakhouse-brewery/44535,3.3,255.0,146.0,0.0
Pastime Brewery,,1,taproom,1307 Main St,Oroville,98844,Okanogan,48.93758103,-119.4363202,2020,0,1,1,0,https://untappd.com/w/past-time-brewing/107617,,,,
Peace of Mind Brewing,,1,micro,18411 Hwy 99,Lynnwood,98037,Snohomish,47.83174875,-122.3058165,2022,1,0,1,0,https://untappd.com/Peace_Of_Mind_Brewing,3.73,1221.0,402.0,27.0
Peddler Brewing Company,,1,brewpub,1514 NW Leary Way,Seattle,98107,King,47.66387586,-122.3771003,2013,0,0,0,0,https://untappd.com/PeddlerBrewing,3.49,39167.0,13143.0,1.0
Penn Cove Brewing Company,,1,micro,103 S Main St,Coupeville,98239,Island,48.2109786,-122.685896,2015,0,0,0,1,https://untappd.com/PennCoveBrewingCo,3.71,5727.0,2392.0,5.0
Perfect Circle Brewing,,1,brewpub,713 6th Street,Prosser,99350,Benton,46.20462657,-119.7691094,2021,0,0,1,0,https://untappd.com/PerfectCircleBrewing,,,,
Perihelion Brewery,,1,brewpub,2800 16th Ave S,Seattle,98144,King,47.578506,-122.311929,2016,1,1,0,0,https://untappd.com/Perihelion-Brewery,3.65,11643.0,3423.0,47.0
Perry Street Brewing,,1,micro,1025 S Perry St,Spokane,99202,Spokane,47.64604873,-117.3898042,2014,1,0,1,0,https://untappd.com/w/perry-street-brewing/115199,3.89,17209.0,3647.0,38.0
Pike Brewing Company,,1,micro,1415 1st Ave,Seattle,98101,King,47.608001,-122.3394073,1989,1,1,0,0,https://untappd.com/pikebrewing,3.59,288339.0,102899.0,430.0
Port Townsend Brewing Company,,1,micro,330 10th St Suite C,Port Townsend,98368,Jefferson,48.1074022,-122.7809758,2001,0,1,1,0,https://untappd.com/porttownsendbrewing,3.63,27654.0,12429.0,53.0
Postdoc Brewing,,1,taproom,17625 NE 65th St #100,Redmond,98052,King,47.66392308,-122.1050753,2014,1,1,1,0,https://untappd.com/PostdocBrewingCompany,3.81,65938.0,15212.0,161.0
Potlatch Brewing Company,,1,brewpub,24180 US-101,Hoodsport,98548,Mason,47.40491678,-123.141186,2021,0,0,1,0,https://untappd.com/w/potlatch-brewing/500440,3.7,1535.0,651.0,19.0
Powerhouse Restaurant and Brewery,,1,nano,454 E Main,Puyallup,98372,Pierce,47.19158631,-122.2879828,2005,1,1,1,0,https://untappd.com/PowerhouseRestaurantBrewery,3.72,13672.0,3927.0,36.0
Precious Things Fermentation Project,,1,taproom,8403 N Bruce Rd,Spokane,99217,Spokane,47.73390559,-117.2865852,2018,1,0,1,0,https://untappd.com/Preciousthingsbeer,4.2,1207.0,223.0,0.0
Project 9 Brewing,,1,taproom,1409 NE 80th St,Seattle,98115,King,47.6864758,-122.3130665,2022,0,0,0,0,https://untappd.com/project9brewing,3.81,3875.0,1006.0,139.0
Propolis Brewing,,1,taproom,2457 Jefferson St,Port Townsend,98368,Jefferson,48.1086174,-122.773463,2013,0,1,1,0,https://untappd.com/PropolisBrewing,3.91,34536.0,14434.0,69.0
Quartzite Brewing Company,,1,taproom,105 W Main St,Chewelah,99109,Stevens,48.27595137,-117.7169469,2016,1,1,1,0,https://untappd.com/QuartziteBrewingCompany,3.72,860.0,278.0,1.0
Quirk Brewing,,1,taproom,425 B St,Walla Walla,99362,Walla Walla,46.0901597,-118.27695,2016,0,1,1,0,https://untappd.com/QuirkBrewing,3.8,4588.0,1147.0,19.0
Rail Hop'n Brewing Company,,1,brewpub,122 West Main Street Suite 101 B,Auburn,98001,King,47.3071471,-122.2315213,2017,0,1,1,0,https://untappd.com/RailHopnBrewingCompany,3.71,3953.0,1155.0,10.0
Railside Brewing,,1,micro,309 NE 76th St,Vancouver,98665,Clark,45.6768255,-122.66818,2012,0,1,1,0,https://untappd.com/RailSideBrewing,3.57,4025.0,1275.0,3.0
Rainy Daze Brewing,,1,brewpub,650 NW Bovela Ln #3,Poulsbo,98370,Kitsap,47.73971613,-122.6578393,2012,0,1,1,0,https://untappd.com/RainyDazeBrewing,3.81,32221.0,9199.0,79.0
RAM Restaurant and Brewery,,0,brewpub,10520 Quil Ceda Blvd,Tulalip,98271,Snohomish,48.0920236,-122.18619,1971,1,1,1,0,https://untappd.com/theRAM,3.62,210555.0,60961.0,118.0
RAM Restaurant and Brewery,,0,brewpub,3001 N Ruston Way,Tacoma,98403,Pierce,47.27964127,-122.4747009,1971,1,1,1,0,https://untappd.com/theRAM,3.62,210555.0,60961.0,118.0
RAM Restaurant and Brewery,,0,brewpub,103 35th Ave Se,Puyallup,98374,Pierce,47.15857171,-122.292781,1971,1,1,1,0,https://untappd.com/theRAM,3.62,210555.0,60961.0,118.0
RAM Restaurant and Brewery,,1,brewpub,10019 59th Ave Sw,Lakewood,98499,Pierce,47.16646601,-122.5154303,1971,1,1,1,0,https://untappd.com/theRAM,3.62,210555.0,60961.0,118.0
RAM Restaurant and Brewery,,0,brewpub,9020 Market Pl,Lake Stevens,98258,Snohomish,47.99798107,-122.1101016,1971,1,1,1,0,https://untappd.com/theRAM,3.62,210555.0,60961.0,118.0
RAM Restaurant and Brewery,,0,brewpub,8100 Freedom Lane Ne,Lacey,98516,Thurston,47.062162,-122.768971,1971,1,1,1,0,https://untappd.com/theRAM,3.62,210555.0,60961.0,118.0
RAM Restaurant and Brewery,,0,brewpub,512 Ramsay Way Ste 4-103,Kent,98032,King,47.3853319,-122.2349867,1971,1,1,1,0,https://untappd.com/theRAM,3.62,210555.0,60961.0,118.0
RAM Restaurant and Brewery,,0,brewpub,965 NE Park Drive,Issaquah,98029,King,47.542944,-122.017035,1971,1,1,1,0,https://untappd.com/theRAM,3.62,210555.0,60961.0,118.0
Rattlesnake Mountain Brewing Company,,1,taproom,2696 N Columbia Center Blvd,Richland,99352,Benton,46.237587,-119.221937,1999,0,1,1,0,https://untappd.com/w/rattlesnake-mountain-brewing-company/15572,3.35,3319.0,1131.0,14.0
Ravenna Brewing Company,,1,taproom,5408 26th Ave Ne,Seattle,98105,King,47.66814202,-122.2994354,2015,0,1,1,0,https://untappd.com/RavennaBrewingCo,4.01,58259.0,10459.0,390.0
Recluse Brewing,,1,regional,4035 Grant St Suite 102,Washougal,98671,Clark,45.56246607,-122.326347,2022,1,0,0,0,https://untappd.com/RecluseBrewWorks,3.93,1276.0,658.0,143.0
Redhook Brewlab,,1,brewpub,714 E Pike St,Seattle,98122,King,47.61413993,-122.3230889,1982,0,0,0,0,https://untappd.com/Redhook,3.43,846987.0,312999.0,203.0
Remlinger Farm Brewery,,1,brewpub,32610 NE 32nd St,Carnation,98014,King,47.63908563,-121.9021766,2021,1,0,1,0,https://untappd.com/w/remlinger-brewing/521350,3.51,794.0,272.0,28.0
Republic Brewing Company,,1,brewpub,26 N Clark Ave,Republic,99166,Ferry,48.64801538,-118.737951,2011,1,1,1,0,https://untappd.com/RepublicBrewingCompany,3.7,2016.0,903.0,2.0
Resonate Brewery and Pizzeria,,1,regional,5606 119th Ave Se,Bellevue,98006,King,47.5521229,-122.1776163,2015,1,1,1,0,https://untappd.com/ResonateBrewery,3.68,13868.0,3131.0,23.0
Reuben's Brews,Ballard Taproom,1,regional,5010 14th Ave Nw,Seattle,98107,King,47.66540226,-122.3733006,2012,1,1,1,0,https://untappd.com/ReubensBrews,3.88,489725.0,103879.0,1279.0
Reuben's Brews,Production Brewery,0,micro,800 NW 46th St,Seattle,98107,King,47.6624119,-122.3665983,2012,1,1,1,0,https://untappd.com/ReubensBrews,3.88,489725.0,103879.0,1279.0
Reuben's Brews,Barrel House,0,regional,1133 NW 51st St,Seattle,98107,King,47.66556004,-122.3722199,2012,1,1,1,0,https://untappd.com/ReubensBrews,3.88,489725.0,103879.0,1279.0
Reuben's Brews,Fremont Taproom,0,brewpub,4401 Fremont Ave N,Seattle,98103,King,47.66034408,-122.35029,2012,1,1,1,0,https://untappd.com/ReubensBrews,3.88,489725.0,103879.0,1279.0
Ridgefield Craft Brewing Company,,1,micro,120 N 3rd Ave,Ridgefield,98642,Clark,45.81593797,-122.7448428,2021,0,0,1,0,https://untappd.com/RidgefieldCraftBrewingCo,3.75,3656.0,1796.0,14.0
River City Brewing,,1,taproom,121 S Cedar St,Spokane,99201,Spokane,47.65601288,-117.4322061,2012,0,1,1,1,https://untappd.com/RiverCityBrewing,3.73,22867.0,7976.0,4.0
River Mile 38 Brewing Company,,1,brewpub,285 Third Street,Cathlamet,98612,Wahkiakum,46.20545555,-123.3855916,2014,0,1,1,0,https://untappd.com/Rivermile,3.67,3803.0,1580.0,16.0
River Time Brewing,,1,taproom,660 Emens Ave,Darrington,98241,Snohomish,48.24905292,-121.6020432,2014,1,1,0,0,https://untappd.com/River_Time_Brewing,3.62,1815.0,835.0,5.0
Riverport Brewing Company,,1,micro,150 9th St,Clarkston,99403,Asotin,46.42640142,-117.0521262,2008,0,1,1,0,https://untappd.com/RiverportBrewingCompany,3.52,6273.0,2526.0,13.0
Rocky Coulee Brewing,,1,micro,205 N First St,Odessa,99159,Lincoln,47.3358965,-118.68838,2007,0,0,0,0,https://untappd.com/w/rocky-coulee-brewing-company/6856,3.13,1442.0,881.0,1.0
Rooftop Brewing Company,,1,taproom,1220 W Nickerson St,Seattle,98119,King,47.65543327,-122.3725435,2013,1,1,1,0,https://untappd.com/RooftopBrewCo,3.7,42248.0,16412.0,113.0
Rose Garage Brewing and Taps,,1,taproom,613 S Whitman Ave,Rosalia,99170,Whitman,47.23413,-117.37,2020,0,0,1,0,https://untappd.com/w/rose-garage/475853,3.73,52.0,29.0,0.0
Roslyn Brewing Company,,1,brewpub,208 Pennsylvania Ave Box 24,Roslyn,98941,Kittitas,47.2220541,-120.9949,1990,0,1,1,0,https://untappd.com/w/roslyn-brewing-company/8120,3.52,9011.0,4470.0,12.0
SAAL Brewing Company,,1,brewpub,10209 270th St Nw,Stanwood,98292,Snohomish,48.24167216,-122.3708879,2019,1,0,1,0,https://untappd.com/SAALBrewingCompany,3.9,1572.0,519.0,27.0
Saddle Rock Pub and Brewery,,1,taproom,25 N Wenatchee Ave,Wenatchee,98801,Chelan,47.42508078,-120.3116522,2011,0,1,1,0,https://untappd.com/SaddleRockPubBrewery,3.79,1075.0,586.0,7.0
Sage Brewing Company,,1,brewpub,8425 Chapel Hill Blvd Ste B 102,Pasco,99301,Franklin,46.270331,-119.200383,2019,0,0,1,0,https://untappd.com/Sage_Brewing,3.88,3033.0,838.0,33.0
Salish Sea Brewing Company,,1,brewpub,518 Dayton St,Edmonds,98020,Snohomish,47.80962938,-122.3769597,2013,0,1,1,0,https://untappd.com/SalishSeaBrewingCompany,3.67,17449.0,5593.0,39.0
Salish Sea Brewing Company,,0,brewpub,180 W Dayton St #102,Edmonds,98020,Snohomish,47.8089416,-122.3867089,2013,0,1,1,0,https://untappd.com/SalishSeaBrewingCompany,3.67,17449.0,5593.0,39.0
San Juan Island Brewing Company,,1,micro,410 A Street,Friday Harbor,98250,San Juan,48.53276441,-123.0150223,2018,1,1,1,0,https://untappd.com/SanJuanIslandBrewingCo,3.73,19418.0,7839.0,114.0
Savage Brewing Company,,1,micro,12815 NE 124th St I,Kirkland,98034,King,47.7102668,-122.1693396,2013,1,0,1,0,https://untappd.com/BrewingSavageCompany,3.84,4184.0,975.0,44.0
Scamp Brewing Company,,1,micro,402 16th St NE #107,Auburn,98002,King,47.32172545,-122.224216,2017,1,1,1,0,https://untappd.com/ScampBrewingCompany,3.68,3914.0,1179.0,0.0
Scuttlebutt Brewing Company,,1,micro,3310 Cedar Street,Everett,98201,Snohomish,47.97388911,-122.1940768,1996,1,1,1,0,https://untappd.com/ScuttlebuttBrewingCompany,3.51,121040.0,58554.0,168.0
Scuttlebutt Brewing Company,,0,brewpub,1205 Craftsman Way,Everett,98201,Snohomish,48.000862,-122.217199,1996,1,1,1,0,https://untappd.com/ScuttlebuttBrewingCompany,3.51,121040.0,58554.0,168.0
Scythe Brewing Company,,1,micro,1217 3rd Avenue Suite 150,Longview,98632,Cowlitz,46.13381,-122.92371,2021,0,0,1,0,https://untappd.com/w/scythe-brewing-co/520668,3.74,949.0,323.0,14.0
Seapine Brewing Company,,1,taproom,2959 Utah Ave S,Seattle,98134,King,47.57723323,-122.335249,2012,0,1,1,0,https://untappd.com/SeapineBrewing,3.83,64574.0,25182.0,308.0
Selah Springs Brewing Company,,1,micro,310 S 1st St,Selah,98942,Yakima,46.64962306,-120.5313354,2022,0,0,0,0,https://untappd.com/w/selah-springs-brewing-co/522035,3.8,38.0,25.0,0.0
Shellback Brewing,,1,micro,6400 w 13th ct,Kennewick,99338,Benton,46.19705,-119.20829,2020,0,0,1,0,https://untappd.com/w/shellback-brewing/517182,4.02,29.0,26.0,2.0
Shorthead Brewing,,1,micro,123 E Yakima Ave Ste 110,Yakima,98901,Yakima,46.60277707,-120.504983,2022,0,0,0,0,https://untappd.com/ShortheadBrewing,3.8,319.0,153.0,0.0
Shoug Brewing Company,,1,brewpub,1311 SE Cliffside Dr,Washougal,98671,Clark,46.19705,-119.20829,2017,0,1,1,0,https://untappd.com/w/shoug-brewing-company/360746,3.63,1844.0,1001.0,14.0
Sig Brewing Company,,1,regional,2534 Tacoma Ave S,Tacoma,98402,Pierce,47.23791051,-122.4411779,2020,0,0,1,0,https://untappd.com/SigBrewingCompany,3.94,27324.0,7747.0,231.0
Silver City Brewery,,1,regional,2799 NW Myhre Rd,Silverdale,98383,Kitsap,47.659485,-122.687646,2010,1,1,1,0,https://untappd.com/SilverCityBrewery,3.76,287823.0,82391.0,571.0
Silver City Brewery,,0,micro,206 Katy Penman Ave,Bremerton,98312,Kitsap,47.5615655,-122.678,2010,1,1,1,0,https://untappd.com/SilverCityBrewery,3.76,287823.0,82391.0,571.0
Singing Hops Brewing Company,,1,taproom,4817 RURAL RD SW,Olympia,98512,Thurston,46.19705,-119.20829,2017,0,0,1,0,https://untappd.com/SingingHops,3.89,2541.0,836.0,12.0
Single Hill Brewing Company,,1,micro,102 N Naches Ave,Yakima,98901,Yakima,46.60510315,-120.5004419,2018,1,0,1,0,https://untappd.com/SingleHillBrewing,3.92,49121.0,12472.0,651.0
Skagit River Brewing Company,,1,taproom,404 S Third St,Mount Vernon,98273,Skagit,48.419213,-122.33547,1999,1,0,0,0,https://untappd.com/SkagitRiverBrewery,3.49,14614.0,7259.0,43.0
Skep Brewing Company,,1,brewpub,723 N M St,Tacoma,98403,Pierce,47.2611966,-122.4615206,2019,0,0,1,0,https://untappd.com/SkepBrewing,,,,
Skookum Brewery,,1,brewpub,17925 59th Avenue Northeast,Arlington,98223,Snohomish,48.16310323,-122.1510524,2007,0,1,0,0,https://untappd.com/SkookumBrewery,4.03,146213.0,26814.0,221.0
Slippery Pig Brewing,,1,micro,18801 Front Street Ne,Poulsbo,98370,Kitsap,47.73353044,-122.6457393,2011,0,1,1,0,https://untappd.com/Slippery_Pig_Brewery,3.49,14510.0,4685.0,33.0
Sluggo Brewing,,1,taproom,409 E 26th St,Tacoma,98421,Pierce,47.23879176,-122.4288251,2015,0,1,0,0,https://untappd.com/w/sluggo-brewing/222565,3.67,1109.0,805.0,1.0
Snapshot Brewing,,1,brewpub,8005 Greenwood Ave N,Seattle,98103,King,47.68708447,-122.355422,2020,0,0,1,0,https://untappd.com/SnapshotBrewing,3.7,1307.0,672.0,7.0
Snipes Mountain Brewing,,1,micro,905 Yakima Valley Hwy Box 274,Sunnyside,98944,Yakima,46.3285926,-120.00832,2000,0,0,0,0,https://untappd.com/snipesmountain,3.6,19365.0,8527.0,2.0
Snoqualmie Falls Brewing Company,,1,taproom,8032 Falls Ave Se,Snoqualmie,98065,King,47.5286214,-121.8240977,1997,1,1,1,0,https://untappd.com/snoqualmiebrew,3.61,56980.0,22979.0,73.0
SnoTown Brewery,,1,brewpub,511 2nd St,Snohomish,98290,Snohomish,47.912584,-122.088239,2014,0,1,0,0,https://untappd.com/SnoTownBrewery,3.56,4523.0,1465.0,1.0
Snow Eater Brewing Company,,1,micro,2325 N Mckinzie Lane,Liberty Lake,99019,Spokane,47.6773601,-117.1000429,2020,1,0,1,0,https://untappd.com/SnowEaterBrewingCo,3.87,3269.0,670.0,18.0
Sound To Summit Brewing,,1,brewpub,1830 Bickford Ave,Snohomish,98291,Snohomish,47.9344682,-122.1049977,2015,1,0,0,0,https://untappd.com/SoundToSummitBrewing,3.74,19246.0,4594.0,144.0
Spada Farmhouse Brewery,,1,micro,709 1St St,Snohomish,98291,Snohomish,47.910685,-122.0924265,2017,0,1,0,0,https://untappd.com/SpadaFarmhouseBrewery,3.82,6469.0,1671.0,16.0
Square Wheel Brewing Company,,1,micro,4705 N Fruit Hill Rd,Spokane,99217,Spokane,47.69830588,-117.2495435,2017,0,1,1,0,https://untappd.com/w/square-wheel-brewing-co/218439,3.61,949.0,578.0,1.0
Squirrel Fight Artisan Brewing,,1,brewpub,530 W Valley Rd Suite N,Moses Lake,98837,Grant,47.13851877,-119.2859409,2020,0,0,1,1,https://untappd.com/SquirrelFightArtisanBrewing,3.9,993.0,292.0,1.0
Standard Brewing,,1,micro,2504 S Jackson St,Seattle,98144,King,47.59934851,-122.2996633,2013,0,1,1,0,https://untappd.com/v/standard-brewing/627145,,,,
Steam Donkey Brewing Company,,1,brewpub,101 E Wishkah St,Aberdeen,98520,Grays Harbor,46.974244,-123.81773,2018,1,1,1,0,https://untappd.com/SteamDonkeyBrewingCompany,3.76,5923.0,2086.0,39.0
Steam Plant Brewing Company,,1,taproom,159 S Lincoln,Spokane,99201,Spokane,47.6551818,-117.42474,2013,0,0,0,0,https://untappd.com/SteamPlantBrewing,3.56,11010.0,3415.0,0.0
Stemma Brewing Company,,1,taproom,2039 Moore St,Bellingham,98225,Whatcom,48.7575961,-122.4610244,2019,1,0,1,0,https://untappd.com/StemmaBrewingCo,3.89,15999.0,5093.0,154.0
Stones Throw Brewery,,1,brewpub,1009 Larrabee Ave,Bellingham,98225,Whatcom,48.71859508,-122.5042858,2015,0,1,1,0,https://untappd.com/w/stones-throw-brewery/251779,3.65,7519.0,3001.0,26.0
Stormy Mountain Brewing,,1,micro,133 E Woodin Ave,Chelan,98816,Chelan,47.84002015,-120.0184827,2016,0,0,0,0,https://untappd.com/StormyMountainBrewing,3.45,3082.0,1419.0,5.0
Stoup Brewing,Ballard,1,taproom,1108 NW 52nd St,Seattle,98107,King,47.666659,-122.3712168,2013,1,1,1,0,https://untappd.com/StoupBrewing,3.82,197173.0,45492.0,872.0
Stoup Brewing,Capitol Hill,0,taproom,1158 Broadway,Seattle,98122,King,47.61279997,-122.3205542,2013,1,1,1,0,https://untappd.com/StoupBrewing,3.82,197173.0,45492.0,872.0
Stoup Brewing,Kenmore,0,brewpub,6704 NE 181St St,Kenmore,98028,King,47.75963819,-122.2517308,2013,1,1,1,0,https://untappd.com/StoupBrewing,3.82,197173.0,45492.0,872.0
Structures Brewing,,1,micro,1420 N State St,Bellingham,98225,Whatcom,48.74961882,-122.4751162,2015,0,1,1,0,https://untappd.com/w/structures-brewing/238401,4.12,100061.0,18742.0,778.0
Sumerian Brewing Company,,1,taproom,15510 Woodinville Redmond Rd NE,Woodinville,98072,King,47.74,-122.153,2015,0,1,1,1,https://untappd.com/SumerianBrewery,3.72,35001.0,14537.0,4.0
Swinnerton Brewery,,1,micro,1809 8th St,Marysville,98270,Snohomish,48.0556186,-122.1707737,2016,0,1,1,0,https://untappd.com/w/swinnerton-brewery/208721,3.65,97.0,44.0,0.0
Tacoma Brewing Company,,1,brewpub,1116 Court E,Tacoma,98402,Pierce,47.25256333,-122.4437358,2012,0,1,0,0,https://untappd.com/TacomaBrewingCompany,3.76,6879.0,2506.0,0.0
Talking Cedar Brewery,,1,taproom,19770 Sargent Rd Sw,Rochester,98579,Thurston,46.8017008,-123.0157506,2020,1,0,1,0,https://untappd.com/TalkingCedarBrewing,3.79,8102.0,3741.0,69.0
Taneum Creek Brewing,,1,brewpub,811 Wa-970 #7,Cle Elum,98922,Kittitas,47.19379318,-120.9298215,2021,1,1,1,0,https://untappd.com/TaneumCreekBrewing,3.68,1516.0,705.0,13.0
Temperate Habits Brewing Company,,1,brewpub,500 S 1St St,Mt Vernon,98273,Skagit,48.419287,-122.337759,2021,0,0,1,0,https://untappd.com/w/temperate-habits-brewing-company/477378,3.77,1735.0,770.0,17.0
Ten Pin Brewing Company,,1,brewpub,1165 N Stratford Rd,Moses Lake,98837,Grant,47.14506241,-119.2781729,2013,1,1,1,0,https://untappd.com/TenPinBrewingCompany,3.72,27597.0,12988.0,46.0
Terramar Brewing and Distilling,,1,brewpub,5712 Gilkey Ave,Edison,98232,Skagit,48.5636192,-122.4438085,2021,1,0,1,0,https://untappd.com/TerramarBrewstillery,3.79,5904.0,2091.0,90.0
Best of Hands Barrelhouse,,1,brewpub,7500 35th Ave SW,Seattle,98126,King,47.535,-122.376,2019,0,0,1,0,https://untappd.com/BestOfHands,3.98,14636.0,4220.0,0.0
The Good Society Brewery,,1,brewpub,2701 California Ave Sw,Seattle,98116,King,47.579189,-122.386747,2020,1,0,1,0,https://untappd.com/goodsocietybeer,3.92,6447.0,1642.0,48.0
The Grain Shed,,1,brewpub,1026 E Newark Ave,Spokane,99202,Spokane,47.64914975,-117.3941562,2021,0,0,1,0,https://untappd.com/TheGrainShed,3.75,3157.0,1077.0,40.0
The Heavy Metal Brewing Company,,1,micro,809 Macarthur Blvd,Vancouver,98661,Clark,45.62792809,-122.618584,2017,1,1,1,0,https://untappd.com/TheHeavyMetalBrewingCo,3.69,6666.0,2009.0,26.0
The Hidden Mother Brewery,,1,taproom,1303 N. Washington St,Spokane,98406,Spokane,47.261918,-122.485637,2018,0,0,1,1,https://untappd.com/TheHiddenMotherBrewery,3.78,5317.0,2029.0,0.0
The Station U-Brew,,1,micro,211 W Stewart Ave,Puyallup,98371,Pierce,47.19328373,-122.2959375,2010,0,1,1,0,https://untappd.com/w/the-station-u-brew/16747,3.6,1752.0,414.0,2.0
Thirsty Crab Brewery,,1,micro,9000 WA-525,Clinton,98236,Island,47.97987418,-122.3592704,2016,1,1,1,0,https://untappd.com/w/thirsty-crab-brewery/522205,3.66,297.0,131.0,10.0
Three Bull Brewing,,1,taproom,809 19th St,Snohomish,98290,Snohomish,47.934463,-122.091729,2017,0,1,1,0,https://untappd.com/ThreeBullBrewingCo,3.72,2680.0,1449.0,15.0
Three Magnets Brewing,,1,micro,600 Franklin St SE Suite 102,Olympia,98501,Thurston,47.04311475,-122.8985644,2014,0,1,1,0,https://untappd.com/ThreeMagnetsBrewing,3.81,158547.0,41988.0,50.0
Timber Monster Brewing,,1,taproom,410 Main Street,Sultan,98294,Snohomish,47.86241184,-121.8162157,2018,0,0,0,0,https://untappd.com/w/timber-monster-brewing-company/388115,3.59,2344.0,937.0,0.0
Timber Patch Brewing,,1,taproom,180 2nd St,Morton,98356,Lewis,46.55580371,-122.2752505,2020,0,0,1,0,https://untappd.com/w/timber-patch-brewing/466510,3.75,654.0,255.0,6.0
Tin Dog Brewing,,1,taproom,309 S Cloverdale Street,Seattle,98108,King,47.5246936,-122.3313703,2014,0,1,1,0,https://untappd.com/TinDogBrewing,3.56,4249.0,2038.0,0.0
Top Down Brewing Company,,1,micro,15355 Main St,Sumner,98390,Pierce,47.2033083,-122.2442431,2000,0,0,1,0,https://untappd.com/TopDownBrewingCompany,3.83,2339.0,622.0,23.0
Top Frog Brewery,,1,taproom,221 Vista Dr,Newport,99156,Pend Oreille,48.18376927,-117.1586926,2014,0,1,0,0,https://untappd.com/w/top-frog-brewery/130102,3.47,884.0,419.0,0.0
Top Rung Brewing Company,,1,brewpub,8343 Hogum Bay Ln Ne,Lacey,98516,Thurston,47.07583,-122.763153,2014,1,1,1,0,https://untappd.com/TopRungBrewing,3.72,23800.0,7217.0,40.0
Trap Door Brewing,,1,alt prop,2315 Main St,Vancouver,98660,Clark,45.6386356,-122.6711185,2015,1,1,1,0,https://untappd.com/TrapDoorBrewingCo,3.99,78144.0,19656.0,317.0
Triceratops Brewing Company,,1,alt prop,8036 River Dr SE #203,Tumwater,98501,Thurston,46.9705449,-122.88462,2014,0,1,1,0,https://untappd.com/TriceratopsBrewingCompany,3.77,14535.0,5361.0,63.0
Triple R Brewing,,1,taproom,916 NE 64th Street,Seattle,98115,King,47.67506635,-122.3183608,2014,0,1,1,0,https://untappd.com/TripleRBrewing,3.59,756.0,460.0,8.0
Triplehorn Brewing Company,,1,brewpub,19510 144th Ave Ne,Woodinville,98072,King,47.76919839,-122.1476482,2012,1,1,0,0,https://untappd.com/TriplehornBrewing,3.72,46379.0,12459.0,52.0
TT's Old Iron Brewery,,1,brewpub,154 S Madison,Spokane,99201,Spokane,47.6185516,-117.25099,2017,0,0,1,0,https://untappd.com/TTsOldIronBrewery,3.79,3224.0,1152.0,24.0
Twin Sisters Brewing Company,,1,micro,508 Carolina Street,Bellingham,98225,Whatcom,48.76031192,-122.4689997,2018,1,0,1,0,https://untappd.com/TwinSistersBrewingCompany,3.74,9986.0,3538.0,34.0
Two Beers Brewing Company,,1,micro,4700 Ohio Ave S Unit A,Seattle,98134,King,47.56072271,-122.3379517,2008,0,1,1,0,https://untappd.com/TwoBeersBrewingCo,3.67,129801.0,44689.0,33.0
Two Sisters Honey and Brewery,,1,brewpub,500 Carolina St,Bellingham,98225,Whatcom,48.76004198,-122.4694035,2011,1,0,0,0,https://untappd.com/w/two-sisters-brewery/61640/beer,3.4,121.0,107.0,0.0
Uprise Brewing Company,,1,taproom,617 N Ash St,Spokane,99201,Spokane,47.66292668,-117.43655,2022,0,0,1,0,https://untappd.com/Uprise_Brewing_Co,3.88,3538.0,1163.0,108.0
Urban Family Brewing Company,,1,micro,1103 NW 52nd St,Seattle,98107,King,47.66613655,-122.3710204,2012,1,1,1,0,https://untappd.com/UrbanFamilyBrewing,3.93,240502.0,69494.0,669.0
V Twin Brewing Company,,1,taproom,2302 N Argonne Rd Suite H,Spokane Valley,99212,Spokane,47.67782868,-117.2826374,2017,0,1,0,0,https://untappd.com/VTwinBrewingCompany,3.54,1976.0,536.0,0.0
Valhöll Brewing Company,,1,taproom,18970 rd Ave Ne,Poulsbo,98061,Kitsap,47.7351943,-122.6454,2010,0,1,1,0,https://untappd.com/ValhollBrewing,3.73,21499.0,7952.0,25.0
Valley Brewing Company,,1,brewpub,3215 River Road,Yakima,98902,Yakima,46.61807448,-120.551908,2018,0,1,1,0,https://untappd.com/ValleyBrewingWA,3.95,8561.0,2625.0,24.0
Valley House Brewing Company,,1,micro,16111 Main St Ne,Duvall,98019,King,47.74335796,-121.9858577,2017,0,0,1,0,https://untappd.com/ValleyHouseBrewingCo,3.81,4167.0,1081.0,9.0
Varietal Beer Company,,1,micro,416 E Edison Ave,Sunnyside,98944,Yakima,46.32370381,-120.0154696,2017,1,1,0,0,https://untappd.com/VarietalBeerCo,3.98,50906.0,16240.0,292.0
Vashon Brewing,,1,taproom,17205 Vashon Hwy Sw,Vashon,98070,King,47.4505138,-122.4610462,2011,0,1,1,0,https://untappd.com/VashonBrewingCompany,3.62,2483.0,1180.0,0.0
Vice Beer,,1,taproom,705 SE Park Crest Avenue Suite D430,Vancouver,98683,Clark,45.61538937,-122.521748,2022,1,0,1,0,https://untappd.com/Vice_Beer,3.91,10762.0,3744.0,269.0
Victor 23 Craft Brewery,,1,taproom,2905 St John's Blvd,Vancouver,98661,Clark,45.64258,-122.646328,2016,0,1,1,0,https://untappd.com/Victor23Brewing,3.7,12103.0,4791.0,78.0
Volition Brewing Company,,1,brewpub,43525 se 76th ST,Snoqualmie,98065,King,47.49516514,-121.7860501,2019,1,0,1,0,https://untappd.com/VolitionBrewingCo,3.9,8395.0,2025.0,51.0
Walking Man Brewing,,1,taproom,240 1St Street #3,Stevenson,98648,Skamania,45.69248008,-121.8838479,2003,0,0,1,0,https://untappd.com/WalkingManBrewing,3.67,35931.0,15501.0,9.0
Wander Brewing,,1,taproom,1807 Dean Ave,Bellingham,98225,Whatcom,48.75426712,-122.4737586,2014,1,1,1,0,https://untappd.com/WanderBrewing,3.86,98061.0,26426.0,188.0
Wandering Hop Brewery,,1,taproom,508 N 20th Ave,Yakima,98902,Yakima,46.6052949,-120.53703,2019,0,1,1,0,https://untappd.com/WanderingHop,3.94,11164.0,3177.0,40.0
Wandering Hop Brewery,,0,micro,508 N 20th Ave,Yakima,98902,Yakima,46.60572142,-120.5358957,2019,0,1,1,0,https://untappd.com/WanderingHop,3.94,11164.0,3177.0,40.0
Water Buffalo Brewery,,1,micro,136 Russet Road,Walla Walla,99362,Walla Walla,46.0522023,-118.40608,2020,1,1,1,0,https://untappd.com/WaterBuffaloBrewery,3.77,796.0,339.0,5.0
Watts Brewing Company,,1,brewpub,15510 Redmond - Woodinville Rd NE #E110,Woodinville,98072,Snohomish,47.74011203,-122.1537687,2015,1,1,0,0,https://untappd.com/WattsBrewingCompany,3.75,5384.0,2559.0,54.0
Well 80 Brewing Company,,1,taproom,514 4th Ave E,Olympia,98501,Thurston,47.04534571,-122.8964257,2021,1,0,1,0,https://untappd.com/Well80Brewhouse,3.83,14744.0,4150.0,50.0
Wenatchee Valley Brewing Company,,1,brewpub,108 E Island View Street,Wenatchee,98801,Chelan,47.434948,-120.31472,2016,1,1,0,0,https://untappd.com/WenatcheeValleyBrewingCompany,3.64,5582.0,1993.0,19.0
West Seattle Brewing Company,,1,brewpub,4414 Fauntleroy Way Sw,Seattle,98126,King,47.5642194,-122.3776803,2013,0,1,1,0,https://untappd.com/WestSeattleBrewingCo,3.53,7975.0,3424.0,0.0
West Seattle Brewing Company,,0,taproom,2356 Alki Ave Sw,Seattle,98116,King,47.58228,-122.4024341,2013,0,1,1,0,https://untappd.com/WestSeattleBrewingCo,3.53,7975.0,3424.0,0.0
Western Red Brewing,,1,taproom,19168 Jensen Way Ne,Poulsbo,98370,Kitsap,47.7370261,-122.6466751,2018,1,1,1,0,https://untappd.com/WesternRedBrewing,3.68,7572.0,2565.0,56.0
Wet Coast Brewing Company,,1,micro,6820 Kimball Dr Suite C,Gig Harbor,98335,Pierce,47.32100098,-122.5871411,2015,1,0,0,0,https://untappd.com/WetCoastBrewing,3.78,25438.0,8048.0,49.0
Wheelie Pop Brewing,,1,taproom,1110 NW 50th St,Seattle,98107,King,47.6651248,-122.3710279,2020,0,0,0,0,https://untappd.com/WheeliePopBrewing,3.74,6646.0,2508.0,80.0
Whipsaw Brewing,,1,taproom,704 N Wenas St,Ellensburg,98926,Kittitas,46.99859732,-120.5555012,2016,0,1,1,0,https://untappd.com/WhipsawBrewing,3.71,10332.0,3888.0,70.0
Whistle Punk Brewing Company,,1,micro,122 S Monroe,Spokane,99201,Spokane,47.6559616,-117.42673,2016,1,1,1,0,https://untappd.com/WhistlePunkBrewing,3.92,17717.0,3516.0,106.0
White Bluffs Brewing,,1,taproom,2034 Logston Blvd,Richland,99354,Benton,46.31881569,-119.3015375,2011,1,1,1,0,https://untappd.com/w/white-bluffs-brewing/10846,3.84,18943.0,7523.0,33.0
Whitewall Brewing Company,,1,taproom,14524 Smokey Point Blvd,Marysville,98271,Snohomish,48.12819955,-122.1843224,2014,1,1,0,0,https://untappd.com/WhitewallBrewingCompany,3.74,10541.0,3362.0,7.0
Wicked Teuton Brewing Company,,1,brewpub,1341 SW Barlow St,Oak Harbor,98277,Island,48.28738818,-122.6599142,2017,0,1,1,0,https://untappd.com/WickedTeutonBrewingCompany,3.67,2157.0,622.0,6.0
Wild Man Brewing Company,,1,micro,203 Duryea St,Raymond,98577,Pacific,46.68666224,-123.7343282,2021,0,0,1,0,https://untappd.com/WildManBrewing,3.78,3367.0,1207.0,31.0
Wild Oak Project,,1,brewpub,5229 144th St SE,Everett,98208,Snohomish,47.86718627,-122.160425,2022,0,0,1,0,https://untappd.com/WildOakProject,3.89,665.0,370.0,0.0
Willapa Brewing Company,,1,taproom,405 Minnesota St,South Bend,98586,Pacific,46.66534241,-123.7923129,2018,0,1,0,0,https://untappd.com/WillapaBrewingCo,3.75,2514.0,815.0,27.0
Yaya Brewing Company,,1,taproom,11712 E Montgomery Dr,Spokane Valley,99206,Spokane,47.674922,-117.247451,2020,1,0,1,0,https://untappd.com/YaYaBrewingCompany,3.94,13166.0,6036.0,56.0
Yoked Farmhouse and Brewery,,1,taproom,525 SW Pine Rd SW,Port Orchard,98376,Kitsap,47.41845427,-122.6545476,2020,0,0,1,0,https://untappd.com/YokedFarmhouseBrewery,3.91,1757.0,467.0,21.0
Captain's Brewing Company,,1,micro,Ridgefield,Ridgefield,98642,Clark,45.80739412,-122.7144115,2017,0,1,1,0,https://untappd.com/w/captain-s-brewing-company/389266,3.01,93.0,74.0,0.0
45 Degree Brewhouse,,1,brewpub,10421 E Sprague Ave,Spokane Valley,99206,Spokane,47.65741858,-117.2644514,2022,0,0,1,0,https://untappd.com/w/45-degree-brewhouse/530239,3.89,281.0,73.0,2.0
Another Round Brewing Company,,1,brewpub,745 N Grand Ave #102,Pullman,99163,Whitman,46.73590969,-117.1759123,2021,0,0,1,0,https://untappd.com/AnotherRoundBrewingCo/beer,3.72,865.0,222.0,8.0
Rock and Reef Brewing,,1,micro,416 S Main St,Ellensburg,98926,Kittitas,46.99613501,-120.5484251,2022,0,0,1,0,https://untappd.com/w/enchantment-brewing/529607,3.63,383.0,144.0,21.0
High Bluff Brewing,,1,nano,Port Angeles,Port Angeles,98362,Clallam,48.1190175,-123.4308425,2022,0,0,1,0,https://untappd.com/HighBluffBrewing,4.0,36.0,23.0,2.0
Hillbilly Brewing Company,,1,nano,23118 NW Maplecrest Rd,Ridgefield,98642,Clark,45.7882599,-122.6758731,2015,0,1,1,0,https://untappd.com/HillbillyBrewingCompany,3.23,137.0,112.0,0.0
Logsdon Farmhouse Ales,,1,micro,1834 Main St,Washougal,98671,Clark,45.57826848,-122.3519647,2009,0,1,1,1,https://untappd.com/LogsdonFarmhouseAles,3.98,183798.0,78366.0,70.0
Millwood Brewing Company,,1,micro,9013 E Frederick Ave,Millwood,99212,Spokane,47.68543023,-117.2834938,2017,0,1,1,1,https://untappd.com/Millwood_Brewing_Company,3.76,4122.0,1082.0,1.0
Pint Size Brewing,,1,nano,7410B Greenwood Ave N,Seattle,98103,King,47.6829051,-122.3549746,2019,0,0,1,1,https://untappd.com/PintSizeBrewing,4.2,3154.0,1019.0,0.0
Slaughter County Brewing Company,,1,nano,1307 Bay St,Port Orchard,98366,Kitsap,47.54320643,-122.6269913,2012,0,1,1,1,https://untappd.com/SlaughterCountyBrewingCompany,3.54,4823.0,1882.0,0.0
Spokanite Brewing,,1,nano,6607 N Ash St,Spokane,99208,Spokane,47.7182742,-117.4365533,2022,0,0,1,0,https://untappd.com/SpokaniteBrewing,3.9,563.0,164.0,12.0
Top Knot Brewing,,1,nano,1753 Havillah Rd,Tonasket,98855,Okanogan,48.84809734,-119.1918555,2022,0,0,1,1,https://untappd.com/Top_Knot_Brewing,,,,
Trusty Brewing Company,,1,micro,114 E Evergreen Blvd,Vancouver,98660,Clark,45.6289231,-122.6707958,2016,0,1,1,1,https://untappd.com/TrustyBrewing,3.67,5192.0,1648.0,0.0
Wildland Cooperative,,1,micro,8022 E Greenbluff Rd,Colbert,99005,Spokane,47.8234405,-117.2975874,2021,0,0,1,0,https://untappd.com/wildlandcoop,,,,
Yakima Craft Brewing Company,,1,taproom,2920 River Road #6,Yakima,98902,Yakima,46.61792914,-120.5474552,2008,0,1,1,1,https://untappd.com/v/yakima-craft-brewing-company/49925,,,,
Schooner Exact Brewing Company,,1,micro,3901 1st Ave S,Seattle,98134,King,47.56771692,-122.3357297,2007,0,1,1,1,https://untappd.com/SchoonerExactBrewing,3.7,82371.0,27308.0,0.0
Counterbalance Brewing Company,,1,micro,503 S Michigan St Ste B,Seattle,98108,King,47.545389,-122.3305859,2015,0,1,1,1,https://untappd.com/Counterbalance,3.72,26687.0,10555.0,1.0
Barlow's Brewery,,1,brewpub,705 SE Park Crest Ave Suite D430,Vancouver,98683,Clark,45.61626235,-122.5222064,2020,0,0,1,1,https://untappd.com/BarlowsBrewery,3.78,3305.0,1458.0,2.0
Decibel Brewing Company,,1,micro,18204 Bothell Everett Hwy Suite C,Bothell,98012,Snohomish,47.8332561,-122.2103369,2016,0,1,1,1,https://untappd.com/DecibelBrewing,3.62,5021.0,1386.0,0.0
Darach Brewing Company,,1,taproom,1015 N State St,Bellingham,98225,Whatcom,48.74570657,-122.4813808,2022,0,0,1,1,https://untappd.com/v/darach-brewing-company/11718840,,,,
Common Language Brewing Company,,1,micro,"926 W Sprague Ave, Spokane, WA",Spokane,99201,Spokane,47.6575152,-117.4262344,2022,0,0,1,1,https://untappd.com/w/common-language-brewing/519175,3.82,962.0,351.0,0.0
Griffin Brewing Pilot House,,1,micro,1214 Griffin Ave,Enumclaw,98022,King,47.2061282,-121.9899971,2022,0,0,1,0,https://untappd.com/v/griffin-brewing-pilot-house/11184124,,,,
Ridgeline Brewing Company,,1,nano,941 N Callow Ave,Bremerton,98312,Kitsap,47.5709387,-122.6539669,2017,0,0,1,0,https://untappd.com/RidgelineBrewing,3.73,771.0,179.0,8.0
New Maitland Brewing Llc,,1,nano,8903 E Greenbluff Rd,Colbert,99005,Spokane,47.825198,-117.285727,2022,0,0,1,0,https://untappd.com/b/new-maitland-brewing-scottish-stoat/5426770,,,,
Berchmans Brewing Company,,1,nano,25 North Front Street,Yakima,98901,Yakima,46.602834,-120.507761,2014,0,1,0,1,https://untappd.com/BerchmansBrewingCompany,3.55,1334.0,474.0,2.0
Mcmillin Farm brewhouse,,1,micro,12517 WA-162,Puyallup,98374,KIma,47.14536,-122.2355246,2021,0,0,1,0,https://untappd.com/w/mcmillin-farm-brew/535926,3.8,57.0,30.0,2.0
